[{"id": "1862388193", "name": "BP Tankstelle Goldach", "lat": 47.47711, "lng": 9.46215, "site_brand": "BP", "country_code": "CH", "address": "Bruggm\ufffdhlestrasse 26", "city": "Goldach", "state": null, "postcode": "9403.00", "telephone": "", "facilities": ["alcohol", "accepts_routex_cards", "automatic_site", "open_saturday", "open_sunday"], "products": [], "website": null, "watchlist_id": null, "formatted_address": "Bruggm\ufffdhlestrasse 26\nGoldach\n9403.00", "channel_of_trade": null}, {"id": "1239665779", "name": "BP Service Kriessern", "lat": 47.35923, "lng": 9.60888, "site_brand": "BP", "country_code": "CH", "address": "Sch\ufffdtzenwiese 1", "city": "Kriessern", "state": null, "postcode": "9451.00", "telephone": "+41 71 511 13 78", "facilities": ["alcohol", "lotto", "tobacco", "car_wash", "truck_suitable_site", "shop", "accepts_routex_cards", "open_saturday", "open_sunday"], "products": ["ad_blue_cannister", "ultimate", "ultimate_unleaded"], "website": null, "watchlist_id": null, "formatted_address": "Sch\ufffdtzenwiese 1\nKriessern\n9451.00", "channel_of_trade": null}, {"id": "1879108753", "name": "BP Service Diepoldsau", "lat": 47.38848, "lng": 9.65159, "site_brand": "BP", "country_code": "CH", "address": "Tramstrasse 19", "city": "Diepoldsau", "state": null, "postcode": "9444.00", "telephone": "", "facilities": ["alcohol", "lotto", "tobacco", "shop", "accepts_routex_cards", "open_saturday", "open_sunday"], "products": ["ad_blue_cannister", "ultimate", "ultimate_unleaded"], "website": null, "watchlist_id": null, "formatted_address": "Tramstrasse 19\nDiepoldsau\n9444.00", "channel_of_trade": null}, {"id": "599662041", "name": "BP Tankstelle Heiden", "lat": 47.44398, "lng": 9.5324, "site_brand": "BP", "country_code": "CH", "address": "Rosentalstrasse 1", "city": "Heiden", "state": null, "postcode": "9410.00", "telephone": "", "facilities": ["alcohol", "accepts_routex_cards", "automatic_site", "open_saturday", "open_sunday"], "products": [], "website": null, "watchlist_id": null, "formatted_address": "Rosentalstrasse 1\nHeiden\n9410.00", "channel_of_trade": null}, {"id": "267976836", "name": "BP Tankstelle Heerbrugg", "lat": 47.416472, "lng": 9.633078, "site_brand": "BP", "country_code": "CH", "address": "Auerstrasse 34", "city": "Heerbrugg", "state": null, "postcode": "9435.00", "telephone": "", "facilities": ["alcohol", "accepts_routex_cards", "automatic_site", "open_saturday", "open_sunday"], "products": ["ultimate", "ultimate_unleaded"], "website": null, "watchlist_id": null, "formatted_address": "Auerstrasse 34\nHeerbrugg\n9435.00", "channel_of_trade": null}, {"id": "1777200757", "name": "BP Tansktelle L\ufffdchingen", "lat": 47.3887, "lng": 9.56129, "site_brand": "BP", "country_code": "CH", "address": "Rorschacherstrasse 132", "city": "Altst\ufffdtten SG", "state": null, "postcode": "9450.00", "telephone": "", "facilities": ["alcohol", "accepts_routex_cards", "automatic_site", "open_saturday", "open_sunday"], "products": [], "website": null, "watchlist_id": null, "formatted_address": "Rorschacherstrasse 132\nAltst\ufffdtten SG\n9450.00", "channel_of_trade": null}, {"id": "1054613063", "name": "BP Tankstelle Altst\ufffdtten", "lat": 47.37938, "lng": 9.54472, "site_brand": "BP", "country_code": "CH", "address": "Rorschacherstrasse 24", "city": "Altst\ufffdtten SG", "state": null, "postcode": "9450.00", "telephone": "", "facilities": ["alcohol", "accepts_routex_cards", "automatic_site", "open_saturday", "open_sunday"], "products": ["ultimate", "ultimate_unleaded"], "website": null, "watchlist_id": null, "formatted_address": "Rorschacherstrasse 24\nAltst\ufffdtten SG\n9450.00", "channel_of_trade": null}, {"id": "63099376", "name": "BP Service Werdenberg", "lat": 47.173714, "lng": 9.465247, "site_brand": "BP", "country_code": "CH", "address": "St. Gallerstrasse 67", "city": "Werdenberg", "state": null, "postcode": "9470", "telephone": "+41 81 771 70 71", "facilities": ["truck_suitable_site", "toilet", "shop", "wild_bean_cafe", "accepts_routex_cards", "accepts_toll_payments", "open_saturday", "open_sunday"], "products": ["ad_blue_cannister", "ad_blue_pump", "diesel_on", "ultimate", "ultimate_diesel", "ultimate_unleaded", "unleaded_95", "ad_blue"], "website": null, "watchlist_id": "63099376", "formatted_address": "St. Gallerstrasse 67\nWerdenberg\n9470", "channel_of_trade": null}, {"id": "791660407", "name": "BP Service Rheintal West", "lat": 47.145934, "lng": 9.500417, "site_brand": "BP", "country_code": "CH", "address": "A13", "city": "Buchs SG", "state": null, "postcode": "9470.00", "telephone": "", "facilities": ["alcohol", "lotto", "tobacco", "motorway_site", "shop", "accepts_routex_cards", "open_saturday", "open_sunday"], "products": ["ad_blue_cannister"], "website": null, "watchlist_id": null, "formatted_address": "A13\nBuchs SG\n9470.00", "channel_of_trade": null}, {"id": "688127342", "name": "BP Service Rheintal Ost", "lat": 47.146255, "lng": 9.501092, "site_brand": "BP", "country_code": "CH", "address": "A13", "city": "Buchs SG", "state": null, "postcode": "9470.00", "telephone": "", "facilities": ["alcohol", "lotto", "tobacco", "motorway_site", "shop", "accepts_routex_cards", "open_saturday", "open_sunday"], "products": ["ad_blue_cannister"], "website": null, "watchlist_id": null, "formatted_address": "A13\nBuchs SG\n9470.00", "channel_of_trade": null}, {"id": "1325920365", "name": "BP Service Buchs", "lat": 47.156831, "lng": 9.480225, "site_brand": "BP", "country_code": "CH", "address": "Churerstrasse 63", "city": "Buchs SG", "state": null, "postcode": "9470.00", "telephone": "", "facilities": ["alcohol", "lotto", "tobacco", "truck_suitable_site", "shop", "accepts_routex_cards", "open_saturday", "open_sunday"], "products": ["ad_blue_cannister", "ultimate", "ultimate_diesel", "ultimate_unleaded"], "website": null, "watchlist_id": null, "formatted_address": "Churerstrasse 63\nBuchs SG\n9470.00", "channel_of_trade": null}, {"id": "973066133", "name": "BP Tankstelle Bendern", "lat": 47.20697, "lng": 9.50231, "site_brand": "BP", "country_code": "CH", "address": "Schaaner Strasse 47", "city": "Gamprin-Bendern", "state": null, "postcode": "9487.00", "telephone": "", "facilities": ["alcohol", "accepts_routex_cards", "automatic_site", "open_saturday", "open_sunday"], "products": ["ultimate", "ultimate_unleaded"], "website": null, "watchlist_id": null, "formatted_address": "Schaaner Strasse 47\nGamprin-Bendern\n9487.00", "channel_of_trade": null}, {"id": "1613799558", "name": "BP Service Werdenberg", "lat": 47.173714, "lng": 9.465247, "site_brand": "BP", "country_code": "CH", "address": "St. Gallerstrasse 67", "city": "Werdenberg", "state": null, "postcode": "9470.00", "telephone": "", "facilities": ["alcohol", "lotto", "tobacco", "truck_suitable_site", "shop", "accepts_routex_cards", "open_saturday", "open_sunday"], "products": ["ad_blue_cannister", "ultimate", "ultimate_diesel", "ultimate_unleaded"], "website": null, "watchlist_id": null, "formatted_address": "St. Gallerstrasse 67\nWerdenberg\n9470.00", "channel_of_trade": null}, {"id": "1878397877", "name": "BP Service M\ufffdstair", "lat": 46.634, "lng": 10.45738, "site_brand": "BP", "country_code": "CH", "address": "Parc Rom", "city": "M\ufffdstair", "state": null, "postcode": "7537.00", "telephone": "", "facilities": ["alcohol", "lotto", "tobacco", "truck_suitable_site", "shop", "accepts_routex_cards", "open_saturday", "open_sunday"], "products": ["ad_blue_cannister"], "website": null, "watchlist_id": null, "formatted_address": "Parc Rom\nM\ufffdstair\n7537.00", "channel_of_trade": null}, {"id": "1930870053", "name": "BP Service Bad Ragaz", "lat": 47.007222, "lng": 9.498887, "site_brand": "BP", "country_code": "CH", "address": "Sarganserstrasse 28", "city": "Bad Ragaz", "state": null, "postcode": "7310.00", "telephone": "", "facilities": ["alcohol", "lotto", "tobacco", "shop", "accepts_routex_cards", "open_saturday", "open_sunday"], "products": ["ad_blue_cannister"], "website": null, "watchlist_id": null, "formatted_address": "Sarganserstrasse 28\nBad Ragaz\n7310.00", "channel_of_trade": null}, {"id": "1610764763", "name": "BP Service Heidiland, A13", "lat": 47.011199, "lng": 9.512288, "site_brand": "BP", "country_code": "CH", "address": "A 13", "city": "Maienfeld", "state": null, "postcode": "7304.00", "telephone": "+41 81 511 03 38", "facilities": ["alcohol", "lotto", "tobacco", "truck_suitable_site", "motorway_site", "shop", "accepts_routex_cards", "open_saturday", "open_sunday"], "products": ["ad_blue_cannister", "ultimate", "ultimate_diesel", "ultimate_unleaded"], "website": null, "watchlist_id": null, "formatted_address": "A 13\nMaienfeld\n7304.00", "channel_of_trade": null}, {"id": "576470944", "name": "BP Tankstelle Vaduz", "lat": 47.13256, "lng": 9.52182, "site_brand": "BP", "country_code": "CH", "address": "Zollstrasse 1", "city": "Vaduz", "state": null, "postcode": "9490.00", "telephone": "", "facilities": ["alcohol", "accepts_routex_cards", "automatic_site", "open_saturday", "open_sunday"], "products": ["ultimate", "ultimate_diesel", "ultimate_unleaded"], "website": null, "watchlist_id": null, "formatted_address": "Zollstrasse 1\nVaduz\n9490.00", "channel_of_trade": null}, {"id": "302105226", "name": "BP Tankstelle Chur Ringstrasse", "lat": 46.84846, "lng": 9.51418, "site_brand": "BP", "country_code": "CH", "address": "Ringstrasse 5-9", "city": "Chur", "state": null, "postcode": "7007.00", "telephone": "", "facilities": ["alcohol", "accepts_routex_cards", "automatic_site", "open_saturday", "open_sunday"], "products": ["ad_blue_pump", "ultimate", "ultimate_unleaded", "ad_blue"], "website": null, "watchlist_id": null, "formatted_address": "Ringstrasse 5-9\nChur\n7007.00", "channel_of_trade": null}, {"id": "655109574", "name": "BP Service Chur Kasernenstr", "lat": 46.84641, "lng": 9.5114, "site_brand": "BP", "country_code": "CH", "address": "Kasernenstrasse 148", "city": "Chur", "state": null, "postcode": "7007.00", "telephone": "", "facilities": ["alcohol", "lotto", "tobacco", "car_wash", "shop", "accepts_routex_cards", "open_saturday", "open_sunday"], "products": ["ad_blue_cannister", "ultimate", "ultimate_unleaded"], "website": null, "watchlist_id": null, "formatted_address": "Kasernenstrasse 148\nChur\n7007.00", "channel_of_trade": null}, {"id": "1120452612", "name": "BP Tankstelle Sevelen Betriebs", "lat": 47.125685, "lng": 9.478781, "site_brand": "BP", "country_code": "CH", "address": "Glat 243", "city": "Sevelen", "state": null, "postcode": "9475.00", "telephone": "", "facilities": ["alcohol", "accepts_routex_cards", "automatic_site", "open_saturday", "open_sunday"], "products": [], "website": null, "watchlist_id": null, "formatted_address": "Glat 243\nSevelen\n9475.00", "channel_of_trade": null}, {"id": "1377967492", "name": "BP Tankstelle Sevelen Gonzenst", "lat": 47.12326, "lng": 9.48776, "site_brand": "BP", "country_code": "CH", "address": "Gonzenstrasse 7", "city": "Sevelen", "state": null, "postcode": "9475.00", "telephone": "", "facilities": ["alcohol", "accepts_routex_cards", "automatic_site", "open_saturday", "open_sunday"], "products": ["ultimate", "ultimate_diesel", "ultimate_unleaded"], "website": null, "watchlist_id": null, "formatted_address": "Gonzenstrasse 7\nSevelen\n9475.00", "channel_of_trade": null}, {"id": "587121524", "name": "BP Service Acla da Fans", "lat": 46.955002, "lng": 10.43562, "site_brand": "BP", "country_code": "CH", "address": "Samnaunerstrasse 1", "city": "Martina (Valsot)", "state": null, "postcode": "7560.00", "telephone": "", "facilities": ["alcohol", "lotto", "tobacco", "truck_suitable_site", "shop", "accepts_routex_cards", "open_saturday", "open_sunday"], "products": ["ad_blue_cannister"], "website": null, "watchlist_id": null, "formatted_address": "Samnaunerstrasse 1\nMartina (Valsot)\n7560.00", "channel_of_trade": null}, {"id": "233378516", "name": "BP Tankstelle Klosters - Dorf", "lat": 46.883759, "lng": 9.876583, "site_brand": "BP", "country_code": "CH", "address": "Madrisastrasse 3", "city": "Klosters Dorf", "state": null, "postcode": "7252.00", "telephone": "", "facilities": ["alcohol", "accepts_routex_cards", "automatic_site", "open_saturday", "open_sunday"], "products": [], "website": null, "watchlist_id": null, "formatted_address": "Madrisastrasse 3\nKlosters Dorf\n7252.00", "channel_of_trade": null}, {"id": "45108349", "name": "BP Service K\ufffdblis", "lat": 46.91381, "lng": 9.77179, "site_brand": "BP", "country_code": "CH", "address": "Hauptstrasse 22", "city": "K\ufffdblis", "state": null, "postcode": "7240.00", "telephone": "+41 81 332 18 33", "facilities": ["alcohol", "lotto", "tobacco", "car_wash", "truck_suitable_site", "shop", "accepts_routex_cards", "open_saturday", "open_sunday"], "products": ["ad_blue_cannister", "ultimate", "ultimate_diesel", "ultimate_unleaded"], "website": null, "watchlist_id": "45108349", "formatted_address": "Hauptstrasse 22\nK\ufffdblis\n7240.00", "channel_of_trade": null}, {"id": "2082643096", "name": "BP Tankstelle Maloja", "lat": 46.400176, "lng": 9.695533, "site_brand": "BP", "country_code": "CH", "address": "Hauptstrasse 17", "city": "Maloja", "state": null, "postcode": "7516", "telephone": "+41 81 837 37 77", "facilities": ["open_24_hours", "accepts_routex_cards", "automatic_site", "open_saturday", "open_sunday"], "products": ["diesel_on", "unleaded_95"], "website": null, "watchlist_id": null, "formatted_address": "Hauptstrasse 17\nMaloja\n7516", "channel_of_trade": null}, {"id": "651424714", "name": "BP Service St. Moritz", "lat": 46.48495, "lng": 9.83478, "site_brand": "BP", "country_code": "CH", "address": "Via San Gian 21", "city": "St. Moritz", "state": null, "postcode": "7500.00", "telephone": "", "facilities": ["alcohol", "lotto", "tobacco", "truck_suitable_site", "shop", "accepts_routex_cards", "open_saturday", "open_sunday"], "products": ["ad_blue_cannister"], "website": null, "watchlist_id": null, "formatted_address": "Via San Gian 21\nSt. Moritz\n7500.00", "channel_of_trade": null}, {"id": "1073543609", "name": "BP Tankstelle Maloja", "lat": 46.400176, "lng": 9.695533, "site_brand": "BP", "country_code": "CH", "address": "Strada Cantonale 344", "city": "Maloja", "state": null, "postcode": "7516.00", "telephone": "", "facilities": ["alcohol", "accepts_routex_cards", "automatic_site", "open_saturday", "open_sunday"], "products": ["ultimate", "ultimate_unleaded"], "website": null, "watchlist_id": null, "formatted_address": "Strada Cantonale 344\nMaloja\n7516.00", "channel_of_trade": null}, {"id": "1025491756", "name": "BP Stazione Vira", "lat": 46.144173, "lng": 8.84352, "site_brand": "BP", "country_code": "CH", "address": "Via Cantonale", "city": "Vira (Gambarogno)", "state": null, "postcode": "6574.00", "telephone": "", "facilities": ["alcohol", "accepts_routex_cards", "automatic_site", "open_saturday", "open_sunday"], "products": [], "website": null, "watchlist_id": null, "formatted_address": "Via Cantonale\nVira (Gambarogno)\n6574.00", "channel_of_trade": null}, {"id": "532424573", "name": "BP Service Vacallo", "lat": 45.84384, "lng": 9.03793, "site_brand": "BP", "country_code": "CH", "address": "Via del Breggia 19", "city": "Vacallo", "state": null, "postcode": "6833.00", "telephone": "", "facilities": ["alcohol", "lotto", "tobacco", "shop", "accepts_routex_cards", "open_saturday", "open_sunday"], "products": ["ad_blue_cannister", "ultimate", "ultimate_unleaded"], "website": null, "watchlist_id": null, "formatted_address": "Via del Breggia 19\nVacallo\n6833.00", "channel_of_trade": null}, {"id": "574601531", "name": "BP Service Comacini", "lat": 45.83489129, "lng": 9.0352271, "site_brand": "BP", "country_code": "CH", "address": "Via Maestri Comacini 5", "city": "Chiasso", "state": null, "postcode": "6830.00", "telephone": "", "facilities": ["alcohol", "lotto", "tobacco", "shop", "accepts_routex_cards", "open_saturday", "open_sunday"], "products": ["ad_blue_cannister", "ultimate", "ultimate_unleaded"], "website": null, "watchlist_id": null, "formatted_address": "Via Maestri Comacini 5\nChiasso\n6830.00", "channel_of_trade": null}, {"id": "498075548", "name": "BP Station Pambio-Noranco", "lat": 45.97924, "lng": 8.92866, "site_brand": "BP", "country_code": "CH", "address": "Via Pian Scairolo", "city": "Pambio-Noranco", "state": null, "postcode": "6915.00", "telephone": "", "facilities": ["alcohol", "car_wash", "accepts_routex_cards", "automatic_site", "open_saturday", "open_sunday"], "products": ["ultimate", "ultimate_unleaded"], "website": null, "watchlist_id": null, "formatted_address": "Via Pian Scairolo\nPambio-Noranco\n6915.00", "channel_of_trade": null}, {"id": "1776135814", "name": "BP Service Agno", "lat": 46.006113, "lng": 8.902236, "site_brand": "BP", "country_code": "CH", "address": "Strada Regina 151", "city": "Agno", "state": null, "postcode": "6982.00", "telephone": "", "facilities": ["alcohol", "lotto", "tobacco", "shop", "accepts_routex_cards", "open_saturday", "open_sunday"], "products": ["ad_blue_cannister", "ultimate", "ultimate_unleaded"], "website": null, "watchlist_id": null, "formatted_address": "Strada Regina 151\nAgno\n6982.00", "channel_of_trade": null}, {"id": "216939945", "name": "BP Service Lugano Sud", "lat": 45.99492, "lng": 8.94277, "site_brand": "BP", "country_code": "CH", "address": "Via A. Riva 6", "city": "Lugano", "state": null, "postcode": "6900.00", "telephone": "", "facilities": ["alcohol", "lotto", "tobacco", "shop", "accepts_routex_cards", "open_saturday", "open_sunday"], "products": ["ad_blue_cannister", "ultimate", "ultimate_unleaded"], "website": null, "watchlist_id": null, "formatted_address": "Via A. Riva 6\nLugano\n6900.00", "channel_of_trade": null}, {"id": "16336807", "name": "BP Service Atlante Melide", "lat": 45.9544, "lng": 8.94958, "site_brand": "BP", "country_code": "CH", "address": "Via Cantonale 15", "city": "Melide", "state": null, "postcode": "6815.00", "telephone": "", "facilities": ["alcohol", "lotto", "tobacco", "shop", "accepts_routex_cards", "open_saturday", "open_sunday"], "products": ["ad_blue_cannister", "ultimate", "ultimate_unleaded"], "website": null, "watchlist_id": "16336807", "formatted_address": "Via Cantonale 15\nMelide\n6815.00", "channel_of_trade": null}, {"id": "1066475225", "name": "BP Service Coldrerio", "lat": 45.8504, "lng": 8.981699, "site_brand": "BP", "country_code": "CH", "address": "Via San Giorgio 37", "city": "Coldrerio", "state": null, "postcode": "6877", "telephone": "+41 91 640 35 50", "facilities": ["open_24_hours", "truck_suitable_site", "toilet", "motorway_site", "shop", "accepts_routex_cards", "open_saturday", "open_sunday"], "products": ["ad_blue_cannister", "ad_blue_pump", "auto_gas", "diesel_on", "lpg", "ultimate", "ultimate_diesel", "ultimate_unleaded", "unleaded_95", "ad_blue"], "website": null, "watchlist_id": null, "formatted_address": "Via San Giorgio 37\nColdrerio\n6877", "channel_of_trade": null}, {"id": "820511608", "name": "BP Service Balerna", "lat": 45.844534, "lng": 9.010608, "site_brand": "BP", "country_code": "CH", "address": "Via San Gottardo 56 A", "city": "Balerna", "state": null, "postcode": "6828.00", "telephone": "", "facilities": ["alcohol", "lotto", "tobacco", "shop", "accepts_routex_cards", "open_saturday", "open_sunday"], "products": ["ad_blue_cannister", "ultimate", "ultimate_unleaded"], "website": null, "watchlist_id": null, "formatted_address": "Via San Gottardo 56 A\nBalerna\n6828.00", "channel_of_trade": null}, {"id": "1940473478", "name": "BP Service Coldrerio N-S", "lat": 45.8504, "lng": 8.981699, "site_brand": "BP", "country_code": "CH", "address": "Via San Giorgio 37", "city": "Coldrerio", "state": null, "postcode": "6877.00", "telephone": "", "facilities": ["open_24_hours", "alcohol", "lotto", "tobacco", "truck_suitable_site", "motorway_site", "shop", "accepts_routex_cards", "open_saturday", "open_sunday"], "products": ["ad_blue_cannister", "ultimate", "ultimate_diesel", "ultimate_unleaded"], "website": null, "watchlist_id": null, "formatted_address": "Via San Giorgio 37\nColdrerio\n6877.00", "channel_of_trade": null}, {"id": "739232908", "name": "BP Stazione Genestrerio", "lat": 45.85708, "lng": 8.96782, "site_brand": "BP", "country_code": "CH", "address": "Via Campagna Adorna", "city": "Genestrerio", "state": null, "postcode": "6852.00", "telephone": "", "facilities": ["alcohol", "accepts_routex_cards", "automatic_site", "open_saturday", "open_sunday"], "products": [], "website": null, "watchlist_id": null, "formatted_address": "Via Campagna Adorna\nGenestrerio\n6852.00", "channel_of_trade": null}, {"id": "1917038425", "name": "BP Service Novazzano", "lat": 45.84279, "lng": 8.9742, "site_brand": "BP", "country_code": "CH", "address": "Via Casate 12", "city": "Novazzano", "state": null, "postcode": "6883.00", "telephone": "", "facilities": ["alcohol", "lotto", "tobacco", "shop", "accepts_routex_cards", "open_saturday", "open_sunday"], "products": ["ad_blue_cannister", "ultimate", "ultimate_unleaded"], "website": null, "watchlist_id": null, "formatted_address": "Via Casate 12\nNovazzano\n6883.00", "channel_of_trade": null}, {"id": "1491530379", "name": "BP Stazione Manno", "lat": 46.03707, "lng": 8.92545, "site_brand": "BP", "country_code": "CH", "address": "Via Vedeggio 3", "city": "Manno", "state": null, "postcode": "6928.00", "telephone": "", "facilities": ["alcohol", "accepts_routex_cards", "automatic_site", "open_saturday", "open_sunday"], "products": ["ultimate", "ultimate_unleaded"], "website": null, "watchlist_id": null, "formatted_address": "Via Vedeggio 3\nManno\n6928.00", "channel_of_trade": null}, {"id": "283001470", "name": "BP Stazione Cadenazzo", "lat": 46.15159624, "lng": 8.95677274, "site_brand": "BP", "country_code": "CH", "address": "Via Cantonale", "city": "Cadenazzo", "state": null, "postcode": "6593.00", "telephone": "", "facilities": ["alcohol", "truck_suitable_site", "accepts_routex_cards", "automatic_site", "open_saturday", "open_sunday"], "products": ["ultimate", "ultimate_unleaded"], "website": null, "watchlist_id": null, "formatted_address": "Via Cantonale\nCadenazzo\n6593.00", "channel_of_trade": null}, {"id": "1509105200", "name": "BP Service Gondo", "lat": 46.196557, "lng": 8.137779, "site_brand": "BP", "country_code": "CH", "address": "Simplonstrasse 2", "city": "Gondo", "state": null, "postcode": "3907.00", "telephone": "", "facilities": ["alcohol", "lotto", "tobacco", "shop", "accepts_routex_cards", "open_saturday", "open_sunday"], "products": ["ad_blue_cannister"], "website": null, "watchlist_id": null, "formatted_address": "Simplonstrasse 2\nGondo\n3907.00", "channel_of_trade": null}, {"id": "1045250108", "name": "BP Station Finhaut", "lat": 46.053918, "lng": 6.951484, "site_brand": "BP", "country_code": "CH", "address": "Route Cantonale 2", "city": "Finhaut", "state": null, "postcode": "1925", "telephone": "+41 62 836 85 04", "facilities": ["open_24_hours", "shop", "accepts_routex_cards", "open_saturday", "open_sunday"], "products": ["ad_blue_pump", "diesel_on", "unleaded_95", "ad_blue"], "website": null, "watchlist_id": null, "formatted_address": "Route Cantonale 2\nFinhaut\n1925", "channel_of_trade": null}, {"id": "820433075", "name": "BP Station Le Ch\ufffdtelard", "lat": 46.053918, "lng": 6.951484, "site_brand": "BP", "country_code": "CH", "address": "Route Cantonale 2", "city": "Finhaut", "state": null, "postcode": "1925.00", "telephone": "", "facilities": ["alcohol", "accepts_routex_cards", "automatic_site", "open_saturday", "open_sunday"], "products": ["ultimate", "ultimate_unleaded"], "website": null, "watchlist_id": null, "formatted_address": "Route Cantonale 2\nFinhaut\n1925.00", "channel_of_trade": null}, {"id": "1020281757", "name": "BP Service du Stand Martigny", "lat": 46.096911, "lng": 7.069276, "site_brand": "BP", "country_code": "CH", "address": "Avenue Grand-St-Bernard 39", "city": "Martigny", "state": null, "postcode": "1920.00", "telephone": "", "facilities": ["alcohol", "lotto", "tobacco", "shop", "accepts_routex_cards", "open_saturday", "open_sunday"], "products": ["ad_blue_cannister", "ultimate", "ultimate_diesel", "ultimate_unleaded"], "website": null, "watchlist_id": null, "formatted_address": "Avenue Grand-St-Bernard 39\nMartigny\n1920.00", "channel_of_trade": null}, {"id": "254603190", "name": "BP Service Martigny Simplon", "lat": 46.108575, "lng": 7.090433, "site_brand": "BP", "country_code": "CH", "address": "Rue du Simplon 150", "city": "Martigny", "state": null, "postcode": "1920.00", "telephone": "", "facilities": ["alcohol", "lotto", "tobacco", "truck_suitable_site", "shop", "accepts_routex_cards", "open_saturday", "open_sunday"], "products": ["ad_blue_cannister", "ultimate", "ultimate_unleaded"], "website": null, "watchlist_id": null, "formatted_address": "Rue du Simplon 150\nMartigny\n1920.00", "channel_of_trade": null}, {"id": "550620714", "name": "BP Tankstelle T\ufffdsch", "lat": 46.06906, "lng": 7.77617, "site_brand": "BP", "country_code": "CH", "address": "Kantonsstrasse", "city": "T\ufffdsch", "state": null, "postcode": "3929.00", "telephone": "", "facilities": ["alcohol", "truck_suitable_site", "accepts_routex_cards", "automatic_site", "open_saturday", "open_sunday"], "products": [], "website": null, "watchlist_id": null, "formatted_address": "Kantonsstrasse\nT\ufffdsch\n3929.00", "channel_of_trade": null}, {"id": "1661386284", "name": "BP Service Monthey Manor", "lat": 46.259716, "lng": 6.947684, "site_brand": "BP", "country_code": "CH", "address": "Avenue de l'Europe 19", "city": "Monthey", "state": null, "postcode": "1870.00", "telephone": "", "facilities": ["alcohol", "lotto", "tobacco", "shop", "accepts_routex_cards", "open_saturday", "open_sunday"], "products": ["ad_blue_cannister", "ultimate", "ultimate_unleaded"], "website": null, "watchlist_id": null, "formatted_address": "Avenue de l'Europe 19\nMonthey\n1870.00", "channel_of_trade": null}, {"id": "150122682", "name": "BP Service Bex", "lat": 46.24768, "lng": 7.00692, "site_brand": "BP", "country_code": "CH", "address": "Rue du Simplon 15", "city": "Bex", "state": null, "postcode": "1880.00", "telephone": "", "facilities": ["lotto", "tobacco", "shop", "accepts_routex_cards", "open_saturday", "open_sunday"], "products": ["ad_blue_cannister", "ultimate", "ultimate_unleaded"], "website": null, "watchlist_id": null, "formatted_address": "Rue du Simplon 15\nBex\n1880.00", "channel_of_trade": null}, {"id": "503120798", "name": "BP Service Monthey", "lat": 46.25808, "lng": 6.94561, "site_brand": "BP", "country_code": "CH", "address": "Avenue de France 57", "city": "Monthey", "state": null, "postcode": "1870.00", "telephone": "", "facilities": ["alcohol", "lotto", "tobacco", "shop", "accepts_routex_cards", "open_saturday", "open_sunday"], "products": ["ad_blue_cannister", "ultimate", "ultimate_diesel", "ultimate_unleaded"], "website": null, "watchlist_id": null, "formatted_address": "Avenue de France 57\nMonthey\n1870.00", "channel_of_trade": null}, {"id": "1084280140", "name": "BP Service Gr\ufffdchen", "lat": 46.2018059, "lng": 7.84148936, "site_brand": "BP", "country_code": "CH", "address": "Kantonsstrasse", "city": "Gr\ufffdchen", "state": null, "postcode": "3925.00", "telephone": "", "facilities": ["alcohol", "lotto", "tobacco", "car_wash", "shop", "accepts_routex_cards", "open_saturday", "open_sunday"], "products": ["ad_blue_cannister", "ultimate", "ultimate_unleaded"], "website": null, "watchlist_id": null, "formatted_address": "Kantonsstrasse\nGr\ufffdchen\n3925.00", "channel_of_trade": null}, {"id": "217260617", "name": "BP Service Sion", "lat": 46.22323, "lng": 7.34753, "site_brand": "BP", "country_code": "CH", "address": "Rue de la Traversi\ufffdre 2", "city": "Sion", "state": null, "postcode": "1950.00", "telephone": "+41 76 683 86 91", "facilities": ["alcohol", "lotto", "tobacco", "car_wash", "truck_suitable_site", "shop", "accepts_routex_cards", "open_saturday", "open_sunday"], "products": ["ad_blue_cannister", "natural_gas", "ultimate", "ultimate_diesel", "ultimate_unleaded"], "website": null, "watchlist_id": null, "formatted_address": "Rue de la Traversi\ufffdre 2\nSion\n1950.00", "channel_of_trade": null}, {"id": "749675429", "name": "BP Station Botyre", "lat": 46.27793, "lng": 7.40957, "site_brand": "BP", "country_code": "CH", "address": "Route de Botyre 8", "city": "Botyre (Ayent) VS", "state": null, "postcode": "1966.00", "telephone": "", "facilities": ["alcohol", "accepts_routex_cards", "automatic_site", "open_saturday", "open_sunday"], "products": ["ultimate", "ultimate_unleaded"], "website": null, "watchlist_id": null, "formatted_address": "Route de Botyre 8\nBotyre (Ayent) VS\n1966.00", "channel_of_trade": null}, {"id": "1906960040", "name": "BP Station Chalais", "lat": 46.27058, "lng": 7.51686, "site_brand": "BP", "country_code": "CH", "address": "Route de Chippis 35", "city": "Chalais", "state": null, "postcode": "3966.00", "telephone": "", "facilities": ["alcohol", "car_wash", "accepts_routex_cards", "automatic_site", "open_saturday", "open_sunday"], "products": ["ultimate", "ultimate_unleaded"], "website": null, "watchlist_id": null, "formatted_address": "Route de Chippis 35\nChalais\n3966.00", "channel_of_trade": null}, {"id": "1037442740", "name": "BP Service Martigny", "lat": 46.109957, "lng": 7.077322, "site_brand": "BP", "country_code": "CH", "address": "Avenue de Fully 40", "city": "Martigny", "state": null, "postcode": "1920.00", "telephone": "", "facilities": ["alcohol", "lotto", "tobacco", "car_wash", "truck_suitable_site", "shop", "accepts_routex_cards", "open_saturday", "open_sunday"], "products": ["ad_blue_cannister", "ultimate", "ultimate_diesel", "ultimate_unleaded"], "website": null, "watchlist_id": null, "formatted_address": "Avenue de Fully 40\nMartigny\n1920.00", "channel_of_trade": null}, {"id": "2015493968", "name": "BP Station Saxon", "lat": 46.15186, "lng": 7.17943, "site_brand": "BP", "country_code": "CH", "address": "Route du Simplon 7", "city": "Saxon", "state": null, "postcode": "1907.00", "telephone": "", "facilities": ["alcohol", "accepts_routex_cards", "automatic_site", "open_saturday", "open_sunday"], "products": ["ultimate", "ultimate_unleaded"], "website": null, "watchlist_id": null, "formatted_address": "Route du Simplon 7\nSaxon\n1907.00", "channel_of_trade": null}, {"id": "1405301465", "name": "BP Tankstelle Gr\u00e4chen", "lat": 46.2018059, "lng": 7.8414894, "site_brand": "BP", "country_code": "CH", "address": "Kantonsstrasse", "city": "Gr\u00e4chen", "state": null, "postcode": "3925", "telephone": "+41 62 556 61 22", "facilities": ["open_24_hours", "shop", "accepts_routex_cards", "open_saturday", "open_sunday"], "products": ["diesel_on", "ultimate", "ultimate_unleaded", "unleaded_95"], "website": null, "watchlist_id": null, "formatted_address": "Kantonsstrasse\nGr\u00e4chen\n3925", "channel_of_trade": null}, {"id": "573384398", "name": "BP Tankstelle Stalden", "lat": 46.230491, "lng": 7.869384, "site_brand": "BP", "country_code": "CH", "address": "Talstrasse 73", "city": "Stalden", "state": null, "postcode": "3922.00", "telephone": "", "facilities": ["alcohol", "accepts_routex_cards", "automatic_site", "open_saturday", "open_sunday"], "products": ["ultimate", "ultimate_unleaded"], "website": null, "watchlist_id": null, "formatted_address": "Talstrasse 73\nStalden\n3922.00", "channel_of_trade": null}, {"id": "790834546", "name": "BP Station Gen\ufffdve", "lat": 46.20219, "lng": 6.15483, "site_brand": "BP", "country_code": "CH", "address": "Boulevard Helv\ufffdtique 31", "city": "Gen\ufffdve", "state": null, "postcode": "1207.00", "telephone": "", "facilities": ["car_wash", "accepts_routex_cards", "automatic_site", "open_saturday", "open_sunday"], "products": ["ultimate", "ultimate_unleaded"], "website": null, "watchlist_id": null, "formatted_address": "Boulevard Helv\ufffdtique 31\nGen\ufffdve\n1207.00", "channel_of_trade": null}, {"id": "1011236542", "name": "BP Service Petit-Lancy", "lat": 46.19058, "lng": 6.11968, "site_brand": "BP", "country_code": "CH", "address": "Route de Chancy 17 bis", "city": "Petit-Lancy", "state": null, "postcode": "1213.00", "telephone": "", "facilities": ["lotto", "tobacco", "truck_suitable_site", "shop", "accepts_routex_cards", "open_saturday", "open_sunday"], "products": ["ad_blue_cannister", "ultimate", "ultimate_diesel", "ultimate_unleaded"], "website": null, "watchlist_id": null, "formatted_address": "Route de Chancy 17 bis\nPetit-Lancy\n1213.00", "channel_of_trade": null}, {"id": "701947544", "name": "BP Service Ch\ufffdne-Bourg", "lat": 46.19559, "lng": 6.19983, "site_brand": "BP", "country_code": "CH", "address": "Route de Jussy 4", "city": "Ch\ufffdne-Bourg", "state": null, "postcode": "1225.00", "telephone": "+41 76 701 59 30", "facilities": ["lotto", "tobacco", "truck_suitable_site", "shop", "accepts_routex_cards", "open_saturday", "open_sunday"], "products": ["ad_blue_cannister", "ultimate", "ultimate_diesel", "ultimate_unleaded"], "website": null, "watchlist_id": null, "formatted_address": "Route de Jussy 4\nCh\ufffdne-Bourg\n1225.00", "channel_of_trade": null}, {"id": "2118188912", "name": "BP Service Grand-Lancy", "lat": 46.173779, "lng": 6.128241, "site_brand": "BP", "country_code": "CH", "address": "Route de St-Julien 70", "city": "Grand-Lancy", "state": null, "postcode": "1212.00", "telephone": "", "facilities": ["lotto", "tobacco", "truck_suitable_site", "shop", "accepts_routex_cards", "open_saturday", "open_sunday"], "products": ["ad_blue_cannister", "ultimate", "ultimate_diesel", "ultimate_unleaded"], "website": null, "watchlist_id": null, "formatted_address": "Route de St-Julien 70\nGrand-Lancy\n1212.00", "channel_of_trade": null}, {"id": "1020378553", "name": "BP Station Route Blanche Nord", "lat": 46.1898, "lng": 6.19937, "site_brand": "BP", "country_code": "CH", "address": "Route Blanche 10", "city": "Th\ufffdnex", "state": null, "postcode": "1226.00", "telephone": "", "facilities": ["motorway_site", "accepts_routex_cards", "automatic_site", "open_saturday", "open_sunday"], "products": ["ultimate", "ultimate_unleaded"], "website": null, "watchlist_id": null, "formatted_address": "Route Blanche 10\nTh\ufffdnex\n1226.00", "channel_of_trade": null}, {"id": "1325194607", "name": "BP Service Meyrin Kammacher", "lat": 46.223234, "lng": 6.068648, "site_brand": "BP", "country_code": "CH", "address": "Route du Nant-d'Avril 90", "city": "Meyrin", "state": null, "postcode": "1217.00", "telephone": "", "facilities": ["lotto", "tobacco", "car_wash", "truck_suitable_site", "shop", "accepts_routex_cards", "open_saturday", "open_sunday"], "products": ["ad_blue_cannister", "ultimate", "ultimate_diesel", "ultimate_unleaded"], "website": null, "watchlist_id": null, "formatted_address": "Route du Nant-d'Avril 90\nMeyrin\n1217.00", "channel_of_trade": null}, {"id": "1017168267", "name": "BP Service Bellevue", "lat": 46.25376, "lng": 6.1534, "site_brand": "BP", "country_code": "CH", "address": "Route de Lausanne 321", "city": "Bellevue", "state": null, "postcode": "1293.00", "telephone": "+41 22 510 10 39", "facilities": ["lotto", "tobacco", "truck_suitable_site", "shop", "accepts_routex_cards", "open_saturday", "open_sunday"], "products": ["ad_blue_cannister", "ultimate", "ultimate_diesel", "ultimate_unleaded"], "website": null, "watchlist_id": null, "formatted_address": "Route de Lausanne 321\nBellevue\n1293.00", "channel_of_trade": null}, {"id": "870338443", "name": "BP Service Vernier", "lat": 46.21311, "lng": 6.10316, "site_brand": "BP", "country_code": "CH", "address": "Route de Vernier 137", "city": "Ch\ufffdtelaine", "state": null, "postcode": "1219.00", "telephone": "", "facilities": ["lotto", "tobacco", "car_wash", "truck_suitable_site", "shop", "accepts_routex_cards", "open_saturday", "open_sunday"], "products": ["ad_blue_cannister", "ultimate", "ultimate_diesel", "ultimate_unleaded"], "website": null, "watchlist_id": null, "formatted_address": "Route de Vernier 137\nCh\ufffdtelaine\n1219.00", "channel_of_trade": null}, {"id": "1038634398", "name": "BP Service Grand-Saconnex Est", "lat": 46.23609, "lng": 6.1242, "site_brand": "BP", "country_code": "CH", "address": "Route de Ferney 206", "city": "Le Grand-Saconnex", "state": null, "postcode": "1218.00", "telephone": "", "facilities": ["lotto", "tobacco", "car_wash", "truck_suitable_site", "shop", "accepts_routex_cards", "open_saturday", "open_sunday"], "products": ["ad_blue_cannister", "ultimate", "ultimate_diesel", "ultimate_unleaded"], "website": null, "watchlist_id": null, "formatted_address": "Route de Ferney 206\nLe Grand-Saconnex\n1218.00", "channel_of_trade": null}, {"id": "46332997", "name": "BP Service Grand-Saconnex Oues", "lat": 46.23607, "lng": 6.12371, "site_brand": "BP", "country_code": "CH", "address": "Route de Ferney 187", "city": "Le Grand-Saconnex", "state": null, "postcode": "1218.00", "telephone": "", "facilities": ["lotto", "tobacco", "truck_suitable_site", "shop", "accepts_routex_cards", "open_saturday", "open_sunday"], "products": ["ad_blue_cannister", "ultimate", "ultimate_diesel", "ultimate_unleaded"], "website": null, "watchlist_id": "46332997", "formatted_address": "Route de Ferney 187\nLe Grand-Saconnex\n1218.00", "channel_of_trade": null}, {"id": "589560212", "name": "BP Service Collonge-Bellerive", "lat": 46.24871, "lng": 6.2177, "site_brand": "BP", "country_code": "CH", "address": "Route de Thonon 158", "city": "Collonge-Bellerive", "state": null, "postcode": "1245.00", "telephone": "", "facilities": ["lotto", "tobacco", "car_wash", "truck_suitable_site", "shop", "accepts_routex_cards", "open_saturday", "open_sunday"], "products": ["ad_blue_cannister", "natural_gas", "ultimate", "ultimate_diesel", "ultimate_unleaded"], "website": null, "watchlist_id": null, "formatted_address": "Route de Thonon 158\nCollonge-Bellerive\n1245.00", "channel_of_trade": null}, {"id": "1654788680", "name": "BP Service Th\ufffdnex", "lat": 46.18971, "lng": 6.19794, "site_brand": "BP", "country_code": "CH", "address": "Route Blanche 9", "city": "Th\ufffdnex", "state": null, "postcode": "1226.00", "telephone": "", "facilities": ["lotto", "tobacco", "truck_suitable_site", "motorway_site", "shop", "accepts_routex_cards", "open_saturday", "open_sunday"], "products": ["ad_blue_cannister", "ultimate", "ultimate_diesel", "ultimate_unleaded"], "website": null, "watchlist_id": null, "formatted_address": "Route Blanche 9\nTh\ufffdnex\n1226.00", "channel_of_trade": null}, {"id": "599529291", "name": "BP Service Perly Savoy", "lat": 46.156911, "lng": 6.09604, "site_brand": "BP", "country_code": "CH", "address": "Route de St-Julien 266", "city": "Perly", "state": null, "postcode": "1258.00", "telephone": "", "facilities": ["lotto", "tobacco", "truck_suitable_site", "shop", "accepts_routex_cards", "open_saturday", "open_sunday"], "products": ["ad_blue_cannister", "ultimate", "ultimate_diesel", "ultimate_unleaded"], "website": null, "watchlist_id": null, "formatted_address": "Route de St-Julien 266\nPerly\n1258.00", "channel_of_trade": null}, {"id": "47391108", "name": "BP Service Onex", "lat": 46.18489, "lng": 6.10283, "site_brand": "BP", "country_code": "CH", "address": "Route de Chancy 102", "city": "Onex", "state": null, "postcode": "1213.00", "telephone": "", "facilities": ["lotto", "tobacco", "car_wash", "truck_suitable_site", "shop", "accepts_routex_cards", "open_saturday", "open_sunday"], "products": ["ad_blue_cannister", "ultimate", "ultimate_diesel", "ultimate_unleaded"], "website": null, "watchlist_id": "47391108", "formatted_address": "Route de Chancy 102\nOnex\n1213.00", "channel_of_trade": null}, {"id": "1494076567", "name": "BP Service Corseaux", "lat": 46.47101, "lng": 6.84046, "site_brand": "BP", "country_code": "CH", "address": "Route de Ch\ufffdtel-St-Denis 18", "city": "Corseaux", "state": null, "postcode": "1802.00", "telephone": "+41 76 615 75 01", "facilities": ["lotto", "tobacco", "car_wash", "shop", "accepts_routex_cards", "open_saturday", "open_sunday"], "products": ["ad_blue_cannister", "ultimate", "ultimate_diesel", "ultimate_unleaded"], "website": null, "watchlist_id": null, "formatted_address": "Route de Ch\ufffdtel-St-Denis 18\nCorseaux\n1802.00", "channel_of_trade": null}, {"id": "1829228673", "name": "Emil Frey Crissier", "lat": 46.5554141, "lng": 6.57032085, "site_brand": "BP", "country_code": "CH", "address": "Chemin de Closalet 19", "city": "Crissier", "state": null, "postcode": "1023.00", "telephone": "", "facilities": ["accepts_routex_cards", "automatic_site", "open_saturday", "open_sunday"], "products": [], "website": null, "watchlist_id": null, "formatted_address": "Chemin de Closalet 19\nCrissier\n1023.00", "channel_of_trade": null}, {"id": "506503764", "name": "BP Station Lausanne Aloys-Fauq", "lat": 46.54163, "lng": 6.63324, "site_brand": "BP", "country_code": "CH", "address": "Route Aloys-Fauquez 128", "city": "Lausanne", "state": null, "postcode": "1018.00", "telephone": "", "facilities": ["accepts_routex_cards", "automatic_site", "open_saturday", "open_sunday"], "products": ["ultimate", "ultimate_unleaded"], "website": null, "watchlist_id": null, "formatted_address": "Route Aloys-Fauquez 128\nLausanne\n1018.00", "channel_of_trade": null}, {"id": "1357969542", "name": "BP Service Renens", "lat": 46.54684, "lng": 6.56509, "site_brand": "BP", "country_code": "CH", "address": "Boulevard de l'Arc-en-Ciel 43", "city": "Bussigny", "state": null, "postcode": "1030.00", "telephone": "", "facilities": ["lotto", "tobacco", "truck_suitable_site", "shop", "accepts_routex_cards", "open_saturday", "open_sunday"], "products": ["ad_blue_cannister", "ultimate", "ultimate_diesel", "ultimate_unleaded"], "website": null, "watchlist_id": null, "formatted_address": "Boulevard de l'Arc-en-Ciel 43\nBussigny\n1030.00", "channel_of_trade": null}, {"id": "65872488", "name": "BP Service Bussigny", "lat": 46.54969, "lng": 6.56441, "site_brand": "BP", "country_code": "CH", "address": "Route de Crissier 6", "city": "Bussigny", "state": null, "postcode": "1030.00", "telephone": "", "facilities": ["lotto", "tobacco", "car_wash", "truck_suitable_site", "shop", "accepts_routex_cards", "open_saturday", "open_sunday"], "products": ["ad_blue_cannister", "ultimate", "ultimate_diesel", "ultimate_unleaded"], "website": null, "watchlist_id": "65872488", "formatted_address": "Route de Crissier 6\nBussigny\n1030.00", "channel_of_trade": null}, {"id": "852358821", "name": "BP Service Crissier", "lat": 46.5459, "lng": 6.5868, "site_brand": "BP", "country_code": "CH", "address": "Route de Prilly 29", "city": "Crissier", "state": null, "postcode": "1023.00", "telephone": "", "facilities": ["lotto", "tobacco", "car_wash", "truck_suitable_site", "shop", "accepts_routex_cards", "open_saturday", "open_sunday"], "products": ["ad_blue_cannister", "ultimate", "ultimate_diesel", "ultimate_unleaded"], "website": null, "watchlist_id": null, "formatted_address": "Route de Prilly 29\nCrissier\n1023.00", "channel_of_trade": null}, {"id": "1879570845", "name": "BP Service Bl\ufffdcherette", "lat": 46.54148, "lng": 6.61765, "site_brand": "BP", "country_code": "CH", "address": "Avenue du Grey 119", "city": "Lausanne", "state": null, "postcode": "1018.00", "telephone": "", "facilities": ["lotto", "tobacco", "truck_suitable_site", "shop", "accepts_routex_cards", "open_saturday", "open_sunday"], "products": ["ad_blue_cannister", "natural_gas", "ultimate", "ultimate_diesel", "ultimate_unleaded"], "website": null, "watchlist_id": null, "formatted_address": "Avenue du Grey 119\nLausanne\n1018.00", "channel_of_trade": null}, {"id": "1314758839", "name": "BP Service Le Mont", "lat": 46.55778, "lng": 6.63578, "site_brand": "BP", "country_code": "CH", "address": "Route de Lausanne 5", "city": "Le Mont-sur-Lausanne", "state": null, "postcode": "1052.00", "telephone": "", "facilities": ["lotto", "tobacco", "truck_suitable_site", "shop", "accepts_routex_cards", "open_saturday", "open_sunday"], "products": ["ad_blue_cannister", "ultimate", "ultimate_diesel", "ultimate_unleaded"], "website": null, "watchlist_id": null, "formatted_address": "Route de Lausanne 5\nLe Mont-sur-Lausanne\n1052.00", "channel_of_trade": null}, {"id": "1739391367", "name": "BP Station Oron-la-Ville", "lat": 46.57149, "lng": 6.82638, "site_brand": "BP", "country_code": "CH", "address": "Route de Lausanne 3", "city": "Oron-la-Ville", "state": null, "postcode": "1610.00", "telephone": "", "facilities": ["accepts_routex_cards", "automatic_site", "open_saturday", "open_sunday"], "products": [], "website": null, "watchlist_id": null, "formatted_address": "Route de Lausanne 3\nOron-la-Ville\n1610.00", "channel_of_trade": null}, {"id": "36499268", "name": "BP Station Savigny", "lat": 46.53856, "lng": 6.73028, "site_brand": "BP", "country_code": "CH", "address": "Route de Claie-aux-Moines 5", "city": "Savigny", "state": null, "postcode": "1073.00", "telephone": "", "facilities": ["car_wash", "accepts_routex_cards", "automatic_site", "open_saturday", "open_sunday"], "products": ["ultimate", "ultimate_unleaded"], "website": null, "watchlist_id": "36499268", "formatted_address": "Route de Claie-aux-Moines 5\nSavigny\n1073.00", "channel_of_trade": null}, {"id": "1928391015", "name": "BP Service Moudon", "lat": 46.66672, "lng": 6.8002, "site_brand": "BP", "country_code": "CH", "address": "Route Cantonale 601", "city": "Moudon", "state": null, "postcode": "1510.00", "telephone": "", "facilities": ["lotto", "tobacco", "shop", "accepts_routex_cards", "open_saturday", "open_sunday"], "products": ["ad_blue_cannister", "ultimate", "ultimate_unleaded"], "website": null, "watchlist_id": null, "formatted_address": "Route Cantonale 601\nMoudon\n1510.00", "channel_of_trade": null}, {"id": "5386287", "name": "BP Station Lausanne Grand-Ch\ufffdn", "lat": 46.51979, "lng": 6.63006, "site_brand": "BP", "country_code": "CH", "address": "Rue du Grand-Ch\ufffdne 10", "city": "Lausanne", "state": null, "postcode": "1003.00", "telephone": "", "facilities": ["accepts_routex_cards", "automatic_site", "open_saturday", "open_sunday"], "products": ["ultimate", "ultimate_unleaded"], "website": null, "watchlist_id": null, "formatted_address": "Rue du Grand-Ch\ufffdne 10\nLausanne\n1003.00", "channel_of_trade": null}, {"id": "1105728071", "name": "Emil Frey St-Legier", "lat": 46.47540811, "lng": 6.86406224, "site_brand": "BP", "country_code": "CH", "address": "Zone Industrielle du Rio-Gredon", "city": "St-Legier", "state": null, "postcode": "1806.00", "telephone": "", "facilities": ["accepts_routex_cards", "automatic_site", "open_saturday", "open_sunday"], "products": [], "website": null, "watchlist_id": null, "formatted_address": "Zone Industrielle du Rio-Gredon\nSt-Legier\n1806.00", "channel_of_trade": null}, {"id": "1596440453", "name": "BP Service Montolivet", "lat": 46.510618, "lng": 6.639536, "site_brand": "BP", "country_code": "CH", "address": "Avenue Montchoisi 63", "city": "Lausanne", "state": null, "postcode": "1006.00", "telephone": "", "facilities": ["lotto", "tobacco", "shop", "accepts_routex_cards", "open_saturday", "open_sunday"], "products": ["ad_blue_cannister"], "website": null, "watchlist_id": null, "formatted_address": "Avenue Montchoisi 63\nLausanne\n1006.00", "channel_of_trade": null}, {"id": "1559447463", "name": "BP Station Saint-Sulpice", "lat": 46.51511, "lng": 6.56068, "site_brand": "BP", "country_code": "CH", "address": "Route Cantonale 55", "city": "Saint-Sulpice", "state": null, "postcode": "1025.00", "telephone": "", "facilities": ["accepts_routex_cards", "automatic_site", "open_saturday", "open_sunday"], "products": ["ultimate", "ultimate_unleaded"], "website": null, "watchlist_id": null, "formatted_address": "Route Cantonale 55\nSaint-Sulpice\n1025.00", "channel_of_trade": null}, {"id": "2012269981", "name": "BP Service Pully", "lat": 46.51212, "lng": 6.65927, "site_brand": "BP", "country_code": "CH", "address": "Avenue de Lavaux 38", "city": "Pully", "state": null, "postcode": "1009.00", "telephone": "", "facilities": ["lotto", "tobacco", "shop", "accepts_routex_cards", "open_saturday", "open_sunday"], "products": ["ad_blue_cannister", "ultimate", "ultimate_diesel", "ultimate_unleaded"], "website": null, "watchlist_id": null, "formatted_address": "Avenue de Lavaux 38\nPully\n1009.00", "channel_of_trade": null}, {"id": "324476477", "name": "BP Service Pully La Rosiaz", "lat": 46.52274, "lng": 6.66029, "site_brand": "BP", "country_code": "CH", "address": "Boulevard de la For\ufffdt 1", "city": "Pully", "state": null, "postcode": "1009.00", "telephone": "", "facilities": ["lotto", "tobacco", "shop", "accepts_routex_cards", "open_saturday", "open_sunday"], "products": ["ad_blue_cannister", "ultimate", "ultimate_diesel", "ultimate_unleaded"], "website": null, "watchlist_id": null, "formatted_address": "Boulevard de la For\ufffdt 1\nPully\n1009.00", "channel_of_trade": null}, {"id": "669897021", "name": "BP Service La Chaux-de-Fonds", "lat": 47.10235, "lng": 6.83331, "site_brand": "BP", "country_code": "CH", "address": "rue de l'H\u00f4tel-de-Ville 10", "city": "La Chaux-de-Fonds", "state": null, "postcode": "2300", "telephone": "+41 32 968 67 88", "facilities": ["truck_suitable_site", "toilet", "shop", "accepts_routex_cards", "accepts_toll_payments", "open_saturday", "open_sunday"], "products": ["diesel_on", "ultimate", "ultimate_unleaded", "unleaded_95"], "website": null, "watchlist_id": null, "formatted_address": "rue de l'H\u00f4tel-de-Ville 10\nLa Chaux-de-Fonds\n2300", "channel_of_trade": null}, {"id": "820896412", "name": "BP Station Cernier", "lat": 47.060212, "lng": 6.910252, "site_brand": "BP", "country_code": "CH", "address": "Passage des C\ufffdpes 2", "city": "Cernier", "state": null, "postcode": "2053.00", "telephone": "", "facilities": ["alcohol", "truck_suitable_site", "accepts_routex_cards", "automatic_site", "open_saturday", "open_sunday"], "products": ["ultimate", "ultimate_unleaded"], "website": null, "watchlist_id": null, "formatted_address": "Passage des C\ufffdpes 2\nCernier\n2053.00", "channel_of_trade": null}, {"id": "1840251513", "name": "BP Station La Chaux-de-Fonds C", "lat": 47.094365, "lng": 6.82147, "site_brand": "BP", "country_code": "CH", "address": "Rue des Cr\ufffdtets 90", "city": "La Chaux-de-Fonds", "state": null, "postcode": "2300.00", "telephone": "", "facilities": ["alcohol", "accepts_routex_cards", "automatic_site", "open_saturday", "open_sunday"], "products": [], "website": null, "watchlist_id": null, "formatted_address": "Rue des Cr\ufffdtets 90\nLa Chaux-de-Fonds\n2300.00", "channel_of_trade": null}, {"id": "867775453", "name": "BP Station La Chaux-de-Fonds E", "lat": 47.08536, "lng": 6.79868, "site_brand": "BP", "country_code": "CH", "address": "Boulevard des Eplatures 8", "city": "La Chaux-de-Fonds", "state": null, "postcode": "2304.00", "telephone": "", "facilities": ["alcohol", "car_wash", "accepts_routex_cards", "automatic_site", "open_saturday", "open_sunday"], "products": ["ultimate", "ultimate_unleaded"], "website": null, "watchlist_id": null, "formatted_address": "Boulevard des Eplatures 8\nLa Chaux-de-Fonds\n2304.00", "channel_of_trade": null}, {"id": "1128062653", "name": "BP Service Lully", "lat": 46.83121, "lng": 6.85615, "site_brand": "BP", "country_code": "CH", "address": "RestoRoute Rose de la Broye 3", "city": "Lully", "state": null, "postcode": "1470.00", "telephone": "", "facilities": ["open_24_hours", "alcohol", "lotto", "tobacco", "truck_suitable_site", "motorway_site", "shop", "accepts_routex_cards", "open_saturday", "open_sunday"], "products": ["ad_blue_cannister", "ultimate", "ultimate_diesel", "ultimate_unleaded"], "website": null, "watchlist_id": null, "formatted_address": "RestoRoute Rose de la Broye 3\nLully\n1470.00", "channel_of_trade": null}, {"id": "2114121801", "name": "BP Service Pr\ufffdverenges", "lat": 46.51591, "lng": 6.53299, "site_brand": "BP", "country_code": "CH", "address": "Route de Gen\ufffdve 58", "city": "Pr\ufffdverenges", "state": null, "postcode": "1028.00", "telephone": "", "facilities": ["lotto", "tobacco", "shop", "accepts_routex_cards", "open_saturday", "open_sunday"], "products": ["ad_blue_cannister", "ultimate", "ultimate_unleaded"], "website": null, "watchlist_id": null, "formatted_address": "Route de Gen\ufffdve 58\nPr\ufffdverenges\n1028.00", "channel_of_trade": null}, {"id": "297538422", "name": "BP Service La Chaux-de-Fonds V", "lat": 47.10235, "lng": 6.83331, "site_brand": "BP", "country_code": "CH", "address": "Rue de l'H\ufffdtel-de-Ville 10", "city": "La Chaux-de-Fonds", "state": null, "postcode": "2300.00", "telephone": "", "facilities": ["alcohol", "lotto", "tobacco", "truck_suitable_site", "shop", "accepts_routex_cards", "open_saturday", "open_sunday"], "products": ["ad_blue_cannister", "ultimate", "ultimate_unleaded"], "website": null, "watchlist_id": null, "formatted_address": "Rue de l'H\ufffdtel-de-Ville 10\nLa Chaux-de-Fonds\n2300.00", "channel_of_trade": null}, {"id": "1557148531", "name": "BP Station Yverdon", "lat": 46.79356, "lng": 6.62789, "site_brand": "BP", "country_code": "CH", "address": "Le Bey", "city": "Yverdon", "state": null, "postcode": "1400.00", "telephone": "", "facilities": ["car_wash", "accepts_routex_cards", "automatic_site", "open_saturday", "open_sunday"], "products": ["ultimate", "ultimate_unleaded"], "website": null, "watchlist_id": null, "formatted_address": "Le Bey\nYverdon\n1400.00", "channel_of_trade": null}, {"id": "918540222", "name": "BP Service Yverdon", "lat": 46.76603, "lng": 6.65038, "site_brand": "BP", "country_code": "CH", "address": "Rue des Champs-Lovats 1", "city": "Yverdon-les-Bains", "state": null, "postcode": "1400.00", "telephone": "", "facilities": ["lotto", "tobacco", "car_wash", "truck_suitable_site", "shop", "accepts_routex_cards", "open_saturday", "open_sunday"], "products": ["ad_blue_cannister", "natural_gas", "ultimate", "ultimate_diesel", "ultimate_unleaded"], "website": null, "watchlist_id": null, "formatted_address": "Rue des Champs-Lovats 1\nYverdon-les-Bains\n1400.00", "channel_of_trade": null}, {"id": "1043844253", "name": "BP Service Vallorbe", "lat": 46.730873, "lng": 6.386946, "site_brand": "BP", "country_code": "CH", "address": "Le Creux 1337", "city": "Vallorbe", "state": null, "postcode": "1337.00", "telephone": "", "facilities": ["lotto", "tobacco", "truck_suitable_site", "shop", "accepts_routex_cards", "open_saturday", "open_sunday"], "products": ["ad_blue_cannister", "ultimate", "ultimate_unleaded"], "website": null, "watchlist_id": null, "formatted_address": "Le Creux 1337\nVallorbe\n1337.00", "channel_of_trade": null}, {"id": "370287474", "name": "BP Station Coppet", "lat": 46.31523, "lng": 6.1919, "site_brand": "BP", "country_code": "CH", "address": "Route de Suisse 81", "city": "Coppet", "state": null, "postcode": "1296.00", "telephone": "", "facilities": ["accepts_routex_cards", "automatic_site", "open_saturday", "open_sunday"], "products": [], "website": null, "watchlist_id": null, "formatted_address": "Route de Suisse 81\nCoppet\n1296.00", "channel_of_trade": null}, {"id": "1929318547", "name": "BP Station Etoy", "lat": 46.474368, "lng": 6.413154, "site_brand": "BP", "country_code": "CH", "address": "Route d'Allaman 8A", "city": "Etoy", "state": null, "postcode": "1163.00", "telephone": "", "facilities": ["accepts_routex_cards", "automatic_site", "open_saturday", "open_sunday"], "products": ["ultimate", "ultimate_diesel", "ultimate_unleaded"], "website": null, "watchlist_id": null, "formatted_address": "Route d'Allaman 8A\nEtoy\n1163.00", "channel_of_trade": null}, {"id": "941669812", "name": "BP Service Rolle", "lat": 46.45241, "lng": 6.3338, "site_brand": "BP", "country_code": "CH", "address": "Route de Gen\ufffdve 25", "city": "Rolle", "state": null, "postcode": "1180.00", "telephone": "", "facilities": ["car_wash", "accepts_routex_cards", "automatic_site", "open_saturday", "open_sunday"], "products": ["ultimate", "ultimate_diesel", "ultimate_unleaded"], "website": null, "watchlist_id": null, "formatted_address": "Route de Gen\ufffdve 25\nRolle\n1180.00", "channel_of_trade": null}, {"id": "1336802490", "name": "BP Tankstelle Turtmann", "lat": 46.30209, "lng": 7.70717, "site_brand": "BP", "country_code": "CH", "address": "Kantonsstrasse 1", "city": "Turtmann", "state": null, "postcode": "3946.00", "telephone": "", "facilities": ["alcohol", "accepts_routex_cards", "automatic_site", "open_saturday", "open_sunday"], "products": ["ultimate", "ultimate_unleaded"], "website": null, "watchlist_id": null, "formatted_address": "Kantonsstrasse 1\nTurtmann\n3946.00", "channel_of_trade": null}, {"id": "139722632", "name": "BP Service M\ufffdlenen", "lat": 46.63795, "lng": 7.69185, "site_brand": "BP", "country_code": "CH", "address": "Hauptstrasse 1", "city": "M\ufffdlenen", "state": null, "postcode": "3711.00", "telephone": "+41 33 511 21 81", "facilities": ["alcohol", "lotto", "tobacco", "car_wash", "shop", "accepts_routex_cards", "open_saturday", "open_sunday"], "products": ["ad_blue_cannister", "ultimate", "ultimate_diesel", "ultimate_unleaded"], "website": null, "watchlist_id": null, "formatted_address": "Hauptstrasse 1\nM\ufffdlenen\n3711.00", "channel_of_trade": null}, {"id": "2034415771", "name": "BP Service Spiez", "lat": 46.68706, "lng": 7.66778, "site_brand": "BP", "country_code": "CH", "address": "Simmentalstrasse 30", "city": "Spiez", "state": null, "postcode": "3700.00", "telephone": "+41 33 511 21 79", "facilities": ["alcohol", "lotto", "tobacco", "shop", "accepts_routex_cards", "open_saturday", "open_sunday"], "products": ["ad_blue_cannister", "ultimate", "ultimate_diesel", "ultimate_unleaded"], "website": null, "watchlist_id": null, "formatted_address": "Simmentalstrasse 30\nSpiez\n3700.00", "channel_of_trade": null}, {"id": "1491287675", "name": "BP Tankstelle Aarberg", "lat": 47.043823, "lng": 7.273249, "site_brand": "BP", "country_code": "CH", "address": "Murtenstrasse 4", "city": "Aarberg", "state": null, "postcode": "3270.00", "telephone": "", "facilities": ["alcohol", "car_wash", "accepts_routex_cards", "automatic_site", "open_saturday", "open_sunday"], "products": ["ad_blue_pump", "ultimate", "ultimate_diesel", "ultimate_unleaded", "ad_blue"], "website": null, "watchlist_id": null, "formatted_address": "Murtenstrasse 4\nAarberg\n3270.00", "channel_of_trade": null}, {"id": "1556157164", "name": "BP Unbemannte Station Glis", "lat": 46.309179, "lng": 7.971345, "site_brand": "BP", "country_code": "CH", "address": "Kantonsstrasse 2", "city": "Glis", "state": null, "postcode": "3902", "telephone": "+41 27 923 42 21", "facilities": ["open_24_hours", "accepts_routex_cards", "automatic_site", "open_saturday", "open_sunday"], "products": ["diesel_on", "ultimate", "ultimate_unleaded", "unleaded_95"], "website": null, "watchlist_id": null, "formatted_address": "Kantonsstrasse 2\nGlis\n3902", "channel_of_trade": null}, {"id": "334684334", "name": "BP Service Meiringen", "lat": 46.72699, "lng": 8.16985, "site_brand": "BP", "country_code": "CH", "address": "Balmstrasse 2", "city": "Meiringen", "state": null, "postcode": "3860.00", "telephone": "", "facilities": ["alcohol", "lotto", "tobacco", "car_wash", "truck_suitable_site", "shop", "accepts_routex_cards", "open_saturday", "open_sunday"], "products": ["ad_blue_cannister", "ultimate", "ultimate_unleaded"], "website": null, "watchlist_id": null, "formatted_address": "Balmstrasse 2\nMeiringen\n3860.00", "channel_of_trade": null}, {"id": "856554599", "name": "BP Tankstelle Fiesch", "lat": 46.39989, "lng": 8.13388, "site_brand": "BP", "country_code": "CH", "address": "Furkastrasse 18", "city": "Fiesch", "state": null, "postcode": "3984.00", "telephone": "", "facilities": ["alcohol", "car_wash", "accepts_routex_cards", "automatic_site", "open_saturday", "open_sunday"], "products": ["ultimate", "ultimate_unleaded"], "website": null, "watchlist_id": null, "formatted_address": "Furkastrasse 18\nFiesch\n3984.00", "channel_of_trade": null}, {"id": "652862361", "name": "BP Tankstelle Glis", "lat": 46.309179, "lng": 7.971345, "site_brand": "BP", "country_code": "CH", "address": "Kantonsstrasse 2", "city": "Glis", "state": null, "postcode": "3902.00", "telephone": "", "facilities": ["alcohol", "accepts_routex_cards", "automatic_site", "open_saturday", "open_sunday"], "products": ["ultimate", "ultimate_unleaded"], "website": null, "watchlist_id": null, "formatted_address": "Kantonsstrasse 2\nGlis\n3902.00", "channel_of_trade": null}, {"id": "806100409", "name": "BP Tankstelle Naters", "lat": 46.32299, "lng": 7.98811, "site_brand": "BP", "country_code": "CH", "address": "Furkastrasse 13", "city": "Naters", "state": null, "postcode": "3904.00", "telephone": "", "facilities": ["alcohol", "accepts_routex_cards", "automatic_site", "open_saturday", "open_sunday"], "products": ["ultimate", "ultimate_unleaded"], "website": null, "watchlist_id": null, "formatted_address": "Furkastrasse 13\nNaters\n3904.00", "channel_of_trade": null}, {"id": "1643660251", "name": "BP Station Chesi\ufffdres", "lat": 46.30184, "lng": 7.04791, "site_brand": "BP", "country_code": "CH", "address": "Avenue Centrale 86", "city": "Chesi\ufffdres", "state": null, "postcode": "1885.00", "telephone": "", "facilities": ["accepts_routex_cards", "automatic_site", "open_saturday", "open_sunday"], "products": ["ultimate", "ultimate_unleaded"], "website": null, "watchlist_id": null, "formatted_address": "Avenue Centrale 86\nChesi\ufffdres\n1885.00", "channel_of_trade": null}, {"id": "487723854", "name": "BP Service Stockhorn", "lat": 46.73091, "lng": 7.62734, "site_brand": "BP", "country_code": "CH", "address": "Gwattstrasse 83a", "city": "Gwatt (Thun)", "state": null, "postcode": "3645.00", "telephone": "", "facilities": ["alcohol", "lotto", "tobacco", "truck_suitable_site", "shop", "accepts_routex_cards", "open_saturday", "open_sunday"], "products": ["ad_blue_cannister"], "website": null, "watchlist_id": null, "formatted_address": "Gwattstrasse 83a\nGwatt (Thun)\n3645.00", "channel_of_trade": null}, {"id": "333685366", "name": "BP Tankstelle Burgdorf", "lat": 47.062049, "lng": 7.619679, "site_brand": "BP", "country_code": "CH", "address": "Kirchbergstrasse 33", "city": "Burgdorf", "state": null, "postcode": "3400.00", "telephone": "", "facilities": ["alcohol", "accepts_routex_cards", "automatic_site", "open_saturday", "open_sunday"], "products": ["ultimate", "ultimate_unleaded"], "website": null, "watchlist_id": null, "formatted_address": "Kirchbergstrasse 33\nBurgdorf\n3400.00", "channel_of_trade": null}, {"id": "572714059", "name": "BP Tankstelle M\ufffdrel", "lat": 46.35445, "lng": 8.04321, "site_brand": "BP", "country_code": "CH", "address": "Furkastrasse 7", "city": "M\ufffdrel", "state": null, "postcode": "3983.00", "telephone": "", "facilities": ["alcohol", "accepts_routex_cards", "automatic_site", "open_saturday", "open_sunday"], "products": ["ultimate", "ultimate_unleaded"], "website": null, "watchlist_id": null, "formatted_address": "Furkastrasse 7\nM\ufffdrel\n3983.00", "channel_of_trade": null}, {"id": "787668887", "name": "BP Service Sierre", "lat": 46.28815, "lng": 7.52128, "site_brand": "BP", "country_code": "CH", "address": "Avenue de France 52", "city": "Sierre", "state": null, "postcode": "3960.00", "telephone": "", "facilities": ["alcohol", "lotto", "tobacco", "car_wash", "shop", "accepts_routex_cards", "open_saturday", "open_sunday"], "products": ["ad_blue_cannister", "ultimate", "ultimate_unleaded"], "website": null, "watchlist_id": null, "formatted_address": "Avenue de France 52\nSierre\n3960.00", "channel_of_trade": null}, {"id": "537068480", "name": "BP Service Grosswangen", "lat": 47.131438, "lng": 8.053073, "site_brand": "BP", "country_code": "CH", "address": "Eduard-Huberstrasse 18", "city": "Grosswangen", "state": null, "postcode": "6022.00", "telephone": "", "facilities": ["alcohol", "lotto", "tobacco", "truck_suitable_site", "shop", "accepts_routex_cards", "open_saturday", "open_sunday"], "products": ["ad_blue_cannister"], "website": null, "watchlist_id": null, "formatted_address": "Eduard-Huberstrasse 18\nGrosswangen\n6022.00", "channel_of_trade": null}, {"id": "1622197894", "name": "BP Service Ruswil", "lat": 47.08005, "lng": 8.13056, "site_brand": "BP", "country_code": "CH", "address": "Hellb\ufffdhlerstrasse 30", "city": "Ruswil", "state": null, "postcode": "6017.00", "telephone": "", "facilities": ["alcohol", "lotto", "tobacco", "shop", "accepts_routex_cards", "open_saturday", "open_sunday"], "products": ["ad_blue_cannister", "ultimate", "ultimate_unleaded"], "website": null, "watchlist_id": null, "formatted_address": "Hellb\ufffdhlerstrasse 30\nRuswil\n6017.00", "channel_of_trade": null}, {"id": "471984217", "name": "BP Service Biel", "lat": 47.13411, "lng": 7.24138, "site_brand": "BP", "country_code": "CH", "address": "Bahnhofplatz 1", "city": "Biel", "state": null, "postcode": "2502.00", "telephone": "", "facilities": ["alcohol", "lotto", "tobacco", "shop", "accepts_routex_cards", "open_saturday", "open_sunday"], "products": ["ad_blue_cannister"], "website": null, "watchlist_id": null, "formatted_address": "Bahnhofplatz 1\nBiel\n2502.00", "channel_of_trade": null}, {"id": "1479726215", "name": "BP Tankstelle Grosswangen", "lat": 47.131438, "lng": 8.053073, "site_brand": "BP", "country_code": "CH", "address": "Eduard-Huberstrasse 18", "city": "Grosswangen", "state": null, "postcode": "6022", "telephone": "+41 62 836 85 78", "facilities": ["open_24_hours", "shop", "accepts_routex_cards", "accepts_toll_payments", "open_saturday", "open_sunday"], "products": ["ad_blue_cannister", "diesel_on", "unleaded_95"], "website": null, "watchlist_id": null, "formatted_address": "Eduard-Huberstrasse 18\nGrosswangen\n6022", "channel_of_trade": null}, {"id": "269031092", "name": "BP Tankstelle Giswil", "lat": 46.83928, "lng": 8.19022, "site_brand": "BP", "country_code": "CH", "address": "Br\ufffdnigstrasse 16", "city": "Giswil", "state": null, "postcode": "6074.00", "telephone": "", "facilities": ["alcohol", "accepts_routex_cards", "automatic_site", "open_saturday", "open_sunday"], "products": ["ultimate", "ultimate_unleaded"], "website": null, "watchlist_id": null, "formatted_address": "Br\ufffdnigstrasse 16\nGiswil\n6074.00", "channel_of_trade": null}, {"id": "255848039", "name": "BP Service Neuch\ufffdtel", "lat": 46.99584, "lng": 6.94369, "site_brand": "BP", "country_code": "CH", "address": "Rue de la Pierre-\ufffd-Mazel 25", "city": "Neuch\ufffdtel", "state": null, "postcode": "2007.00", "telephone": "", "facilities": ["alcohol", "lotto", "tobacco", "car_wash", "shop", "accepts_routex_cards", "open_saturday", "open_sunday"], "products": ["ad_blue_cannister", "natural_gas", "ultimate", "ultimate_diesel", "ultimate_unleaded"], "website": null, "watchlist_id": null, "formatted_address": "Rue de la Pierre-\ufffd-Mazel 25\nNeuch\ufffdtel\n2007.00", "channel_of_trade": null}, {"id": "2147414630", "name": "BP Station Belfaux", "lat": 46.82139691, "lng": 7.10717852, "site_brand": "BP", "country_code": "CH", "address": "Route du Centre 5", "city": "Belfaux", "state": null, "postcode": "1782.00", "telephone": "", "facilities": ["alcohol", "accepts_routex_cards", "automatic_site", "open_saturday", "open_sunday"], "products": ["ultimate", "ultimate_unleaded"], "website": null, "watchlist_id": null, "formatted_address": "Route du Centre 5\nBelfaux\n1782.00", "channel_of_trade": null}, {"id": "233639321", "name": "BP Station Neyruz", "lat": 46.77007, "lng": 7.06914, "site_brand": "BP", "country_code": "CH", "address": "Route de Fribourg 13", "city": "Neyruz", "state": null, "postcode": "1740.00", "telephone": "", "facilities": ["alcohol", "accepts_routex_cards", "automatic_site", "open_saturday", "open_sunday"], "products": ["ultimate", "ultimate_unleaded"], "website": null, "watchlist_id": null, "formatted_address": "Route de Fribourg 13\nNeyruz\n1740.00", "channel_of_trade": null}, {"id": "221183402", "name": "BP Station Bulle", "lat": 46.615407, "lng": 7.052104, "site_brand": "BP", "country_code": "CH", "address": "Rue de Vevey 82", "city": "Bulle", "state": null, "postcode": "1630.00", "telephone": "", "facilities": ["alcohol", "accepts_routex_cards", "automatic_site", "open_saturday", "open_sunday"], "products": [], "website": null, "watchlist_id": null, "formatted_address": "Rue de Vevey 82\nBulle\n1630.00", "channel_of_trade": null}, {"id": "567875440", "name": "BP Service Ollon", "lat": 46.30181, "lng": 6.97805, "site_brand": "BP", "country_code": "CH", "address": "Route d'Aigle 58", "city": "Ollon", "state": null, "postcode": "1867.00", "telephone": "", "facilities": ["lotto", "tobacco", "shop", "accepts_routex_cards", "open_saturday", "open_sunday"], "products": ["ad_blue_cannister", "ultimate", "ultimate_unleaded"], "website": null, "watchlist_id": null, "formatted_address": "Route d'Aigle 58\nOllon\n1867.00", "channel_of_trade": null}, {"id": "2927993", "name": "BP Service M\ufffdnsingen West", "lat": 46.87777, "lng": 7.54188, "site_brand": "BP", "country_code": "CH", "address": "A6 West / CH3000MKG4", "city": "M\ufffdnsingen", "state": null, "postcode": "3110.00", "telephone": "", "facilities": ["alcohol", "lotto", "tobacco", "truck_suitable_site", "motorway_site", "shop", "accepts_routex_cards", "open_saturday", "open_sunday"], "products": ["ad_blue_cannister", "ultimate", "ultimate_unleaded"], "website": null, "watchlist_id": null, "formatted_address": "A6 West / CH3000MKG4\nM\ufffdnsingen\n3110.00", "channel_of_trade": null}, {"id": "1322367091", "name": "BP Service Holligen", "lat": 46.94392, "lng": 7.42077, "site_brand": "BP", "country_code": "CH", "address": "K\ufffdnizstrasse 12a", "city": "Bern", "state": null, "postcode": "3008.00", "telephone": "", "facilities": ["alcohol", "lotto", "tobacco", "car_wash", "truck_suitable_site", "shop", "accepts_routex_cards", "open_saturday", "open_sunday"], "products": ["ad_blue_cannister", "ultimate", "ultimate_diesel", "ultimate_unleaded"], "website": null, "watchlist_id": null, "formatted_address": "K\ufffdnizstrasse 12a\nBern\n3008.00", "channel_of_trade": null}, {"id": "857882495", "name": "BP Tankstelle M\ufffdnsingen Bernst", "lat": 46.87757, "lng": 7.56192, "site_brand": "BP", "country_code": "CH", "address": "Bernstrasse 14", "city": "M\ufffdnsingen", "state": null, "postcode": "3110.00", "telephone": "", "facilities": ["alcohol", "accepts_routex_cards", "automatic_site", "open_saturday", "open_sunday"], "products": ["ultimate", "ultimate_unleaded"], "website": null, "watchlist_id": null, "formatted_address": "Bernstrasse 14\nM\ufffdnsingen\n3110.00", "channel_of_trade": null}, {"id": "689716280", "name": "BP Tankstelle Oberburg", "lat": 47.03561, "lng": 7.62949, "site_brand": "BP", "country_code": "CH", "address": "Emmentalstrasse 100", "city": "Oberburg", "state": null, "postcode": "3414.00", "telephone": "", "facilities": ["alcohol", "accepts_routex_cards", "automatic_site", "open_saturday", "open_sunday"], "products": ["ultimate", "ultimate_unleaded"], "website": null, "watchlist_id": null, "formatted_address": "Emmentalstrasse 100\nOberburg\n3414.00", "channel_of_trade": null}, {"id": "786685632", "name": "BP Service M\ufffdnsingen Ost", "lat": 46.87822, "lng": 7.54231, "site_brand": "BP", "country_code": "CH", "address": "A6 Ost / CH3000MKG3", "city": "M\ufffdnsingen", "state": null, "postcode": "3110.00", "telephone": "", "facilities": ["alcohol", "lotto", "tobacco", "truck_suitable_site", "motorway_site", "shop", "accepts_routex_cards", "open_saturday", "open_sunday"], "products": ["ad_blue_cannister", "ultimate", "ultimate_unleaded"], "website": null, "watchlist_id": null, "formatted_address": "A6 Ost / CH3000MKG3\nM\ufffdnsingen\n3110.00", "channel_of_trade": null}, {"id": "543015836", "name": "BP Service Ostermundigen", "lat": 46.95679, "lng": 7.48395, "site_brand": "BP", "country_code": "CH", "address": "Bernstrasse 37", "city": "Ostermundigen", "state": null, "postcode": "3072.00", "telephone": "", "facilities": ["alcohol", "lotto", "tobacco", "shop", "accepts_routex_cards", "open_saturday", "open_sunday"], "products": ["ad_blue_cannister", "ultimate", "ultimate_diesel", "ultimate_unleaded"], "website": null, "watchlist_id": null, "formatted_address": "Bernstrasse 37\nOstermundigen\n3072.00", "channel_of_trade": null}, {"id": "2032934282", "name": "BP Tankstelle Lyss", "lat": 47.068014, "lng": 7.315934, "site_brand": "BP", "country_code": "CH", "address": "Bernstrasse 38", "city": "Lyss", "state": null, "postcode": "3250.00", "telephone": "", "facilities": ["alcohol", "accepts_routex_cards", "automatic_site", "open_saturday", "open_sunday"], "products": ["ultimate", "ultimate_unleaded"], "website": null, "watchlist_id": null, "formatted_address": "Bernstrasse 38\nLyss\n3250.00", "channel_of_trade": null}, {"id": "752336490", "name": "BP Service Nidau", "lat": 47.120183, "lng": 7.242194, "site_brand": "BP", "country_code": "CH", "address": "Hauptstrasse 94", "city": "Nidau", "state": null, "postcode": "2560.00", "telephone": "", "facilities": ["alcohol", "lotto", "tobacco", "truck_suitable_site", "shop", "accepts_routex_cards", "open_saturday", "open_sunday"], "products": ["ad_blue_cannister", "ultimate", "ultimate_unleaded"], "website": null, "watchlist_id": null, "formatted_address": "Hauptstrasse 94\nNidau\n2560.00", "channel_of_trade": null}, {"id": "1638801531", "name": "BP Tankstelle Le Landeron", "lat": 47.056383, "lng": 7.06075, "site_brand": "BP", "country_code": "CH", "address": "Route de Neuch\ufffdtel 46", "city": "Le Landeron", "state": null, "postcode": "2525.00", "telephone": "", "facilities": ["alcohol", "accepts_routex_cards", "automatic_site", "open_saturday", "open_sunday"], "products": ["ultimate", "ultimate_unleaded"], "website": null, "watchlist_id": null, "formatted_address": "Route de Neuch\ufffdtel 46\nLe Landeron\n2525.00", "channel_of_trade": null}, {"id": "920138602", "name": "BP Station La Neuveville", "lat": 47.062386, "lng": 7.089099, "site_brand": "BP", "country_code": "CH", "address": "Rue de Neuch\ufffdtel 13", "city": "La Neuveville", "state": null, "postcode": "2520.00", "telephone": "", "facilities": ["alcohol", "car_wash", "accepts_routex_cards", "automatic_site", "open_saturday", "open_sunday"], "products": [], "website": null, "watchlist_id": null, "formatted_address": "Rue de Neuch\ufffdtel 13\nLa Neuveville\n2520.00", "channel_of_trade": null}, {"id": "833832565", "name": "BP Service Lyss", "lat": 47.082382, "lng": 7.296531, "site_brand": "BP", "country_code": "CH", "address": "Bielstrasse 98", "city": "Lyss", "state": null, "postcode": "3250.00", "telephone": "", "facilities": ["alcohol", "lotto", "tobacco", "shop", "accepts_routex_cards", "open_saturday", "open_sunday"], "products": ["ad_blue_cannister", "natural_gas", "ultimate", "ultimate_diesel", "ultimate_unleaded"], "website": null, "watchlist_id": null, "formatted_address": "Bielstrasse 98\nLyss\n3250.00", "channel_of_trade": null}, {"id": "1028784678", "name": "BP Service Marly", "lat": 46.78144, "lng": 7.14922, "site_brand": "BP", "country_code": "CH", "address": "Route de Fribourg 21", "city": "Marly", "state": null, "postcode": "1723.00", "telephone": "", "facilities": ["alcohol", "lotto", "tobacco", "car_wash", "truck_suitable_site", "shop", "accepts_routex_cards", "open_saturday", "open_sunday"], "products": ["ad_blue_cannister", "ultimate", "ultimate_diesel", "ultimate_unleaded"], "website": null, "watchlist_id": null, "formatted_address": "Route de Fribourg 21\nMarly\n1723.00", "channel_of_trade": null}, {"id": "253697903", "name": "BP Service Murten", "lat": 46.93221, "lng": 7.12791, "site_brand": "BP", "country_code": "CH", "address": "L\ufffdwenberg 2", "city": "Murten", "state": null, "postcode": "3280.00", "telephone": "", "facilities": ["alcohol", "lotto", "tobacco", "car_wash", "truck_suitable_site", "shop", "accepts_routex_cards", "open_saturday", "open_sunday"], "products": ["ad_blue_cannister", "ad_blue_pump", "ultimate", "ultimate_diesel", "ultimate_unleaded", "ad_blue"], "website": null, "watchlist_id": null, "formatted_address": "L\ufffdwenberg 2\nMurten\n3280.00", "channel_of_trade": null}, {"id": "317460295", "name": "BP Service Tafers", "lat": 46.81562, "lng": 7.21542, "site_brand": "BP", "country_code": "CH", "address": "Mariahilfstrasse 1", "city": "Tafers", "state": null, "postcode": "1712.00", "telephone": "", "facilities": ["alcohol", "lotto", "tobacco", "car_wash", "truck_suitable_site", "shop", "accepts_routex_cards", "open_saturday", "open_sunday"], "products": ["ad_blue_cannister", "ultimate", "ultimate_unleaded"], "website": null, "watchlist_id": null, "formatted_address": "Mariahilfstrasse 1\nTafers\n1712.00", "channel_of_trade": null}, {"id": "284704949", "name": "BP Service Flamatt", "lat": 46.88976, "lng": 7.31182, "site_brand": "BP", "country_code": "CH", "address": "Bernstrasse 6", "city": "Flamatt", "state": null, "postcode": "3175.00", "telephone": "", "facilities": ["alcohol", "lotto", "tobacco", "shop", "accepts_routex_cards", "open_saturday", "open_sunday"], "products": ["ad_blue_cannister", "ultimate", "ultimate_unleaded"], "website": null, "watchlist_id": null, "formatted_address": "Bernstrasse 6\nFlamatt\n3175.00", "channel_of_trade": null}, {"id": "421776429", "name": "BP Tankstelle Raron", "lat": 46.303324, "lng": 7.799, "site_brand": "BP", "country_code": "CH", "address": "Kantonsstrasse 46", "city": "Raron", "state": null, "postcode": "3942.00", "telephone": "", "facilities": ["alcohol", "accepts_routex_cards", "automatic_site", "open_saturday", "open_sunday"], "products": [], "website": null, "watchlist_id": null, "formatted_address": "Kantonsstrasse 46\nRaron\n3942.00", "channel_of_trade": null}, {"id": "1576535737", "name": "BP Station Aigle", "lat": 46.3179, "lng": 6.95824, "site_brand": "BP", "country_code": "CH", "address": "Route d'Evian 21", "city": "Aigle", "state": null, "postcode": "1860.00", "telephone": "", "facilities": ["accepts_routex_cards", "automatic_site", "open_saturday", "open_sunday"], "products": ["ultimate", "ultimate_unleaded"], "website": null, "watchlist_id": null, "formatted_address": "Route d'Evian 21\nAigle\n1860.00", "channel_of_trade": null}, {"id": "132272090", "name": "BP Tankstelle Lenk", "lat": 46.45881, "lng": 7.44234, "site_brand": "BP", "country_code": "CH", "address": "Simmeng\ufffdetlistrasse 1", "city": "Lenk", "state": null, "postcode": "3775.00", "telephone": "", "facilities": ["alcohol", "accepts_routex_cards", "automatic_site", "open_saturday", "open_sunday"], "products": ["ultimate", "ultimate_unleaded"], "website": null, "watchlist_id": null, "formatted_address": "Simmeng\ufffdetlistrasse 1\nLenk\n3775.00", "channel_of_trade": null}, {"id": "803609917", "name": "BP Service Dallenwil", "lat": 46.93462, "lng": 8.39234, "site_brand": "BP", "country_code": "CH", "address": "Engelbergstrasse 17", "city": "Dallenwil", "state": null, "postcode": "6383.00", "telephone": "", "facilities": ["alcohol", "lotto", "tobacco", "shop", "accepts_routex_cards", "open_saturday", "open_sunday"], "products": ["ad_blue_cannister", "ultimate", "ultimate_unleaded"], "website": null, "watchlist_id": null, "formatted_address": "Engelbergstrasse 17\nDallenwil\n6383.00", "channel_of_trade": null}, {"id": "333980332", "name": "BP Service Unter\ufffdgeri", "lat": 47.13755, "lng": 8.58, "site_brand": "BP", "country_code": "CH", "address": "Zugerstrasse 33", "city": "Unter\ufffdgeri", "state": null, "postcode": "6314.00", "telephone": "", "facilities": ["alcohol", "lotto", "tobacco", "car_wash", "shop", "accepts_routex_cards", "open_saturday", "open_sunday"], "products": ["ad_blue_cannister", "ultimate", "ultimate_diesel", "ultimate_unleaded"], "website": null, "watchlist_id": null, "formatted_address": "Zugerstrasse 33\nUnter\ufffdgeri\n6314.00", "channel_of_trade": null}, {"id": "14237798", "name": "BP Tankstelle Brunnen", "lat": 47.00127, "lng": 8.6147, "site_brand": "BP", "country_code": "CH", "address": "Schwyzerstrasse 11", "city": "Brunnen", "state": null, "postcode": "6440.00", "telephone": "", "facilities": ["alcohol", "accepts_routex_cards", "automatic_site", "open_saturday", "open_sunday"], "products": ["ad_blue_pump", "ultimate", "ultimate_unleaded", "ad_blue"], "website": null, "watchlist_id": "14237798", "formatted_address": "Schwyzerstrasse 11\nBrunnen\n6440.00", "channel_of_trade": null}, {"id": "1929779579", "name": "BP Tankstelle Luzern", "lat": 47.05155, "lng": 8.2991, "site_brand": "BP", "country_code": "CH", "address": "Bruchstrasse 3", "city": "Luzern", "state": null, "postcode": "6003.00", "telephone": "", "facilities": ["alcohol", "accepts_routex_cards", "automatic_site", "open_saturday", "open_sunday"], "products": ["ultimate", "ultimate_unleaded"], "website": null, "watchlist_id": null, "formatted_address": "Bruchstrasse 3\nLuzern\n6003.00", "channel_of_trade": null}, {"id": "1476833468", "name": "BP Service Rothenburg", "lat": 47.11301, "lng": 8.23188, "site_brand": "BP", "country_code": "CH", "address": "Rastst\ufffdtte Ost Tankstelle, E35 Neue", "city": "Rothenburg", "state": null, "postcode": "6023.00", "telephone": "", "facilities": ["alcohol", "lotto", "tobacco", "truck_suitable_site", "motorway_site", "shop", "accepts_routex_cards", "open_saturday", "open_sunday"], "products": ["ad_blue_cannister", "ultimate", "ultimate_unleaded"], "website": null, "watchlist_id": null, "formatted_address": "Rastst\ufffdtte Ost Tankstelle, E35 Neue\nRothenburg\n6023.00", "channel_of_trade": null}, {"id": "15593832", "name": "BP Tankstelle Littau-Luzern", "lat": 47.06616, "lng": 8.2695, "site_brand": "BP", "country_code": "CH", "address": "Staldenhof 1", "city": "Luzern", "state": null, "postcode": "6014.00", "telephone": "", "facilities": ["alcohol", "accepts_routex_cards", "automatic_site", "open_saturday", "open_sunday"], "products": [], "website": null, "watchlist_id": "15593832", "formatted_address": "Staldenhof 1\nLuzern\n6014.00", "channel_of_trade": null}, {"id": "579969534", "name": "BP Tankstelle Thusis", "lat": 46.71213, "lng": 9.44531, "site_brand": "BP", "country_code": "CH", "address": "F\u00fcrstenauerstrasse 1", "city": "Thusis", "state": null, "postcode": "7430", "telephone": "+41 81 632 10 20", "facilities": ["shop", "accepts_routex_cards", "accepts_toll_payments", "open_saturday", "open_sunday"], "products": ["auto_gas", "diesel_on", "ultimate", "ultimate_unleaded", "unleaded_95"], "website": null, "watchlist_id": null, "formatted_address": "F\u00fcrstenauerstrasse 1\nThusis\n7430", "channel_of_trade": null}, {"id": "2008227120", "name": "BP Tankstelle Sargans", "lat": 47.047445, "lng": 9.432722, "site_brand": "BP", "country_code": "CH", "address": "Grossfeldstrasse 81", "city": "Sargans", "state": null, "postcode": "7320.00", "telephone": "", "facilities": ["alcohol", "accepts_routex_cards", "automatic_site", "open_saturday", "open_sunday"], "products": ["ultimate", "ultimate_unleaded"], "website": null, "watchlist_id": null, "formatted_address": "Grossfeldstrasse 81\nSargans\n7320.00", "channel_of_trade": null}, {"id": "65080464", "name": "BP Service Thusis", "lat": 46.71213, "lng": 9.44531, "site_brand": "BP", "country_code": "CH", "address": "Querverbindung A 13 2", "city": "Thusis", "state": null, "postcode": "7430.00", "telephone": "", "facilities": ["alcohol", "lotto", "tobacco", "shop", "accepts_routex_cards", "open_saturday", "open_sunday"], "products": ["ad_blue_cannister"], "website": null, "watchlist_id": "65080464", "formatted_address": "Querverbindung A 13 2\nThusis\n7430.00", "channel_of_trade": null}, {"id": "1121037961", "name": "BP Service Unterterzen", "lat": 47.112527, "lng": 9.266457, "site_brand": "BP", "country_code": "CH", "address": "Bergsboden", "city": "Unterterzen", "state": null, "postcode": "8882.00", "telephone": "", "facilities": ["alcohol", "lotto", "tobacco", "motorway_site", "shop", "accepts_routex_cards", "open_saturday", "open_sunday"], "products": ["ad_blue_cannister"], "website": null, "watchlist_id": null, "formatted_address": "Bergsboden\nUnterterzen\n8882.00", "channel_of_trade": null}, {"id": "1012284746", "name": "BP Tankstelle Rotkreuz", "lat": 47.14547, "lng": 8.43185, "site_brand": "BP", "country_code": "CH", "address": "Chamerstrasse 2", "city": "Rotkreuz", "state": null, "postcode": "6343.00", "telephone": "", "facilities": ["alcohol", "accepts_routex_cards", "automatic_site", "open_saturday", "open_sunday"], "products": ["ultimate", "ultimate_diesel", "ultimate_unleaded"], "website": null, "watchlist_id": null, "formatted_address": "Chamerstrasse 2\nRotkreuz\n6343.00", "channel_of_trade": null}, {"id": "30272914", "name": "BP Tankstelle Walchwil", "lat": 47.09583, "lng": 8.51792, "site_brand": "BP", "country_code": "CH", "address": "Seefeldquai 3", "city": "Walchwil", "state": null, "postcode": "6318.00", "telephone": "", "facilities": ["alcohol", "accepts_routex_cards", "automatic_site", "open_saturday", "open_sunday"], "products": ["ultimate", "ultimate_unleaded"], "website": null, "watchlist_id": "30272914", "formatted_address": "Seefeldquai 3\nWalchwil\n6318.00", "channel_of_trade": null}, {"id": "1009756561", "name": "BP Service Glarnerland", "lat": 47.137939, "lng": 9.050838, "site_brand": "BP", "country_code": "CH", "address": "Tschachen 2", "city": "Ziegelbr\ufffdcke", "state": null, "postcode": "8867.00", "telephone": "", "facilities": ["alcohol", "lotto", "tobacco", "truck_suitable_site", "motorway_site", "shop", "accepts_routex_cards", "open_saturday", "open_sunday"], "products": ["ad_blue_cannister", "natural_gas", "ultimate", "ultimate_diesel", "ultimate_unleaded"], "website": null, "watchlist_id": null, "formatted_address": "Tschachen 2\nZiegelbr\ufffdcke\n8867.00", "channel_of_trade": null}, {"id": "52365195", "name": "BP Tankstelle Weesen", "lat": 47.13276, "lng": 9.087737, "site_brand": "BP", "country_code": "CH", "address": "Ziegelbr\ufffdckstrasse 22", "city": "Weesen", "state": null, "postcode": "8872.00", "telephone": "", "facilities": ["alcohol", "accepts_routex_cards", "automatic_site", "open_saturday", "open_sunday"], "products": ["ultimate", "ultimate_unleaded"], "website": null, "watchlist_id": "52365195", "formatted_address": "Ziegelbr\ufffdckstrasse 22\nWeesen\n8872.00", "channel_of_trade": null}, {"id": "218248091", "name": "BP Tankstelle Kriens", "lat": 47.02878, "lng": 8.29691, "site_brand": "BP", "country_code": "CH", "address": "Nidfeld/Sternmattweg 4", "city": "Kriens", "state": null, "postcode": "6010.00", "telephone": "", "facilities": ["alcohol", "accepts_routex_cards", "automatic_site", "open_saturday", "open_sunday"], "products": ["ultimate", "ultimate_unleaded"], "website": null, "watchlist_id": null, "formatted_address": "Nidfeld/Sternmattweg 4\nKriens\n6010.00", "channel_of_trade": null}, {"id": "1994266584", "name": "BP Tankstelle Sarnen", "lat": 46.89943, "lng": 8.24653, "site_brand": "BP", "country_code": "CH", "address": "Br\ufffdnigstrasse 109", "city": "Sarnen", "state": null, "postcode": "6060.00", "telephone": "", "facilities": ["alcohol", "accepts_routex_cards", "automatic_site", "open_saturday", "open_sunday"], "products": [], "website": null, "watchlist_id": null, "formatted_address": "Br\ufffdnigstrasse 109\nSarnen\n6060.00", "channel_of_trade": null}, {"id": "305643670", "name": "BP Service Emmen-Nord", "lat": 47.08234, "lng": 8.27246, "site_brand": "BP", "country_code": "CH", "address": "Rothenburgstrasse 12", "city": "Emmenbr\ufffdcke", "state": null, "postcode": "6020.00", "telephone": "+41 41 510 80 72", "facilities": ["alcohol", "lotto", "tobacco", "car_wash", "truck_suitable_site", "shop", "accepts_routex_cards", "open_saturday", "open_sunday"], "products": ["ad_blue_cannister", "ultimate", "ultimate_diesel", "ultimate_unleaded"], "website": null, "watchlist_id": null, "formatted_address": "Rothenburgstrasse 12\nEmmenbr\ufffdcke\n6020.00", "channel_of_trade": null}, {"id": "418246233", "name": "BP Tankstelle Ibach", "lat": 47.01531, "lng": 8.64389, "site_brand": "BP", "country_code": "CH", "address": "Gotthardstrasse 109", "city": "Ibach", "state": null, "postcode": "6438.00", "telephone": "", "facilities": ["alcohol", "accepts_routex_cards", "automatic_site", "open_saturday", "open_sunday"], "products": [], "website": null, "watchlist_id": null, "formatted_address": "Gotthardstrasse 109\nIbach\n6438.00", "channel_of_trade": null}, {"id": "1918291769", "name": "BP Stazione Acquarossa", "lat": 46.45084585, "lng": 8.94038795, "site_brand": "BP", "country_code": "CH", "address": "Via Cantonale 127", "city": "Acquarossa", "state": null, "postcode": "6716.00", "telephone": "", "facilities": ["alcohol", "accepts_routex_cards", "automatic_site", "open_saturday", "open_sunday"], "products": [], "website": null, "watchlist_id": null, "formatted_address": "Via Cantonale 127\nAcquarossa\n6716.00", "channel_of_trade": null}, {"id": "324088791", "name": "BP Tankstelle Gross", "lat": 47.11793, "lng": 8.77506, "site_brand": "BP", "country_code": "CH", "address": "Grosserstrasse 34", "city": "Gross", "state": null, "postcode": "8841.00", "telephone": "", "facilities": ["alcohol", "accepts_routex_cards", "automatic_site", "open_saturday", "open_sunday"], "products": [], "website": null, "watchlist_id": null, "formatted_address": "Grosserstrasse 34\nGross\n8841.00", "channel_of_trade": null}, {"id": "934430405", "name": "BP Tankstelle Niederurnen", "lat": 47.120176, "lng": 9.056618, "site_brand": "BP", "country_code": "CH", "address": "Hauptstrasse 52", "city": "Niederurnen", "state": null, "postcode": "8867.00", "telephone": "", "facilities": ["alcohol", "accepts_routex_cards", "automatic_site", "open_saturday", "open_sunday"], "products": ["ultimate", "ultimate_diesel", "ultimate_unleaded"], "website": null, "watchlist_id": null, "formatted_address": "Hauptstrasse 52\nNiederurnen\n8867.00", "channel_of_trade": null}, {"id": "852233119", "name": "BP Service Frenkendorf", "lat": 47.51478, "lng": 7.71978, "site_brand": "BP", "country_code": "CH", "address": "Rheinstrasse 119", "city": "Frenkendorf", "state": null, "postcode": "4402", "telephone": "+41 61 903 10 70", "facilities": ["car_wash", "toilet", "shop", "wild_bean_cafe", "accepts_routex_cards", "accepts_toll_payments", "open_saturday", "open_sunday"], "products": ["ad_blue_cannister", "ad_blue_pump", "diesel_on", "ultimate", "ultimate_unleaded", "unleaded_95", "ad_blue"], "website": null, "watchlist_id": null, "formatted_address": "Rheinstrasse 119\nFrenkendorf\n4402", "channel_of_trade": null}, {"id": "690109797", "name": "BP Service H\ufffdgendorf", "lat": 47.332364, "lng": 7.841378, "site_brand": "BP", "country_code": "CH", "address": "Solothurnstrasse 14", "city": "H\ufffdgendorf", "state": null, "postcode": "4614.00", "telephone": "", "facilities": ["alcohol", "lotto", "tobacco", "shop", "accepts_routex_cards", "open_saturday", "open_sunday"], "products": ["ad_blue_cannister"], "website": null, "watchlist_id": null, "formatted_address": "Solothurnstrasse 14\nH\ufffdgendorf\n4614.00", "channel_of_trade": null}, {"id": "52961241", "name": "BP Service Rheinfelden AG", "lat": 47.549066, "lng": 7.771158, "site_brand": "BP", "country_code": "CH", "address": "Weidenweg 24", "city": "Rheinfelden", "state": null, "postcode": "4310.00", "telephone": "", "facilities": ["alcohol", "lotto", "tobacco", "truck_suitable_site", "shop", "accepts_routex_cards", "open_saturday", "open_sunday"], "products": ["ad_blue_cannister"], "website": null, "watchlist_id": "52961241", "formatted_address": "Weidenweg 24\nRheinfelden\n4310.00", "channel_of_trade": null}, {"id": "1877009209", "name": "BP Tankstelle B\ufffdtzberg", "lat": 47.217469, "lng": 7.756369, "site_brand": "BP", "country_code": "CH", "address": "Z\ufffdrichstrasse 37", "city": "B\ufffdtzberg", "state": null, "postcode": "4922.00", "telephone": "", "facilities": ["alcohol", "car_wash", "truck_suitable_site", "accepts_routex_cards", "automatic_site", "open_saturday", "open_sunday"], "products": ["ultimate", "ultimate_unleaded"], "website": null, "watchlist_id": null, "formatted_address": "Z\ufffdrichstrasse 37\nB\ufffdtzberg\n4922.00", "channel_of_trade": null}, {"id": "1320291716", "name": "BP Service Deitingen", "lat": 47.22589, "lng": 7.61572, "site_brand": "BP", "country_code": "CH", "address": "Mittelland-S\u00fcd", "city": "Deitingen", "state": null, "postcode": "4543", "telephone": "+41 32 614 13 55", "facilities": ["open_24_hours", "truck_parking", "truck_suitable_site", "toilet", "motorway_site", "shop", "wild_bean_cafe", "accepts_routex_cards", "accepts_toll_payments", "open_saturday", "open_sunday"], "products": ["ad_blue_cannister", "ad_blue_pump", "diesel_on", "natural_gas", "ultimate", "ultimate_diesel", "ultimate_unleaded", "unleaded_95", "ad_blue"], "website": null, "watchlist_id": null, "formatted_address": "Mittelland-S\u00fcd\nDeitingen\n4543", "channel_of_trade": null}, {"id": "1339233115", "name": "BP Service Deitingen", "lat": 47.22589, "lng": 7.61572, "site_brand": "BP", "country_code": "CH", "address": "E25 Mittelland-S\ufffdd", "city": "Deitingen", "state": null, "postcode": "4543.00", "telephone": "+41 32 510 07 44", "facilities": ["open_24_hours", "alcohol", "lotto", "tobacco", "truck_suitable_site", "motorway_site", "shop", "accepts_routex_cards", "open_saturday", "open_sunday"], "products": ["ad_blue_cannister", "natural_gas", "ultimate", "ultimate_diesel", "ultimate_unleaded"], "website": null, "watchlist_id": null, "formatted_address": "E25 Mittelland-S\ufffdd\nDeitingen\n4543.00", "channel_of_trade": null}, {"id": "740360303", "name": "BP Tankstelle Bellach", "lat": 47.21225, "lng": 7.50877, "site_brand": "BP", "country_code": "CH", "address": "R\ufffdmerstrasse 8", "city": "Bellach", "state": null, "postcode": "4512.00", "telephone": "", "facilities": ["alcohol", "car_wash", "accepts_routex_cards", "automatic_site", "open_saturday", "open_sunday"], "products": [], "website": null, "watchlist_id": null, "formatted_address": "R\ufffdmerstrasse 8\nBellach\n4512.00", "channel_of_trade": null}, {"id": "231656563", "name": "BP Service Riehen", "lat": 47.59442, "lng": 7.65483, "site_brand": "BP", "country_code": "CH", "address": "L\ufffdrracherstrasse 153", "city": "Riehen", "state": null, "postcode": "4125.00", "telephone": "+41 76 705 34 27", "facilities": ["alcohol", "lotto", "tobacco", "shop", "accepts_routex_cards", "open_saturday", "open_sunday"], "products": ["ad_blue_cannister"], "website": null, "watchlist_id": null, "formatted_address": "L\ufffdrracherstrasse 153\nRiehen\n4125.00", "channel_of_trade": null}, {"id": "219411086", "name": "BP Tankstelle Biel B\ufffdzingenstr", "lat": 47.150401, "lng": 7.262649, "site_brand": "BP", "country_code": "CH", "address": "B\ufffdzingerstrasse 100", "city": "Biel", "state": null, "postcode": "2502.00", "telephone": "", "facilities": ["alcohol", "accepts_routex_cards", "automatic_site", "open_saturday", "open_sunday"], "products": ["ultimate", "ultimate_unleaded"], "website": null, "watchlist_id": null, "formatted_address": "B\ufffdzingerstrasse 100\nBiel\n2502.00", "channel_of_trade": null}, {"id": "501732709", "name": "BP Unbemannte Station Basel", "lat": 47.57157, "lng": 7.55755, "site_brand": "BP", "country_code": "CH", "address": "Burgfelderstrasse 291", "city": "Basel", "state": null, "postcode": "4055", "telephone": "+41 61 903 10 70", "facilities": ["open_24_hours", "accepts_routex_cards", "automatic_site", "open_saturday", "open_sunday"], "products": ["diesel_on", "ultimate", "ultimate_diesel", "ultimate_unleaded", "unleaded_95"], "website": null, "watchlist_id": null, "formatted_address": "Burgfelderstrasse 291\nBasel\n4055", "channel_of_trade": null}, {"id": "523481713", "name": "BP Tankstelle Pratteln", "lat": 47.52498, "lng": 7.68999, "site_brand": "BP", "country_code": "CH", "address": "Hohenrainstrasse 2", "city": "Pratteln", "state": null, "postcode": "4133.00", "telephone": "", "facilities": ["alcohol", "truck_suitable_site", "accepts_routex_cards", "automatic_site", "open_saturday", "open_sunday"], "products": ["ultimate", "ultimate_unleaded"], "website": null, "watchlist_id": null, "formatted_address": "Hohenrainstrasse 2\nPratteln\n4133.00", "channel_of_trade": null}, {"id": "677178700", "name": "BP Tankstelle Dornach", "lat": 47.483096, "lng": 7.613841, "site_brand": "BP", "country_code": "CH", "address": "Bruggweg 74", "city": "Dornach", "state": null, "postcode": "4143.00", "telephone": "", "facilities": ["alcohol", "truck_suitable_site", "accepts_routex_cards", "automatic_site", "open_saturday", "open_sunday"], "products": ["ultimate", "ultimate_unleaded"], "website": null, "watchlist_id": null, "formatted_address": "Bruggweg 74\nDornach\n4143.00", "channel_of_trade": null}, {"id": "1024310347", "name": "BP Tansktelle Basel-Flughafen", "lat": 47.594025, "lng": 7.53435, "site_brand": "BP", "country_code": "CH", "address": "Route Douani\ufffdre de l'A\ufffdroport \ufffd B\ufffdl", "city": "Basel-Flughafen", "state": null, "postcode": "4030.00", "telephone": "", "facilities": ["alcohol", "accepts_routex_cards", "automatic_site", "open_saturday", "open_sunday"], "products": [], "website": null, "watchlist_id": null, "formatted_address": "Route Douani\ufffdre de l'A\ufffdroport \ufffd B\ufffdl\nBasel-Flughafen\n4030.00", "channel_of_trade": null}, {"id": "531218628", "name": "BP Tankstelle Allschwil", "lat": 47.5486533, "lng": 7.5572794, "site_brand": "BP", "country_code": "CH", "address": "Steinb\ufffdhlallee 182", "city": "Allschwil", "state": null, "postcode": "4123.00", "telephone": "", "facilities": ["alcohol", "accepts_routex_cards", "automatic_site", "open_saturday", "open_sunday"], "products": [], "website": null, "watchlist_id": null, "formatted_address": "Steinb\ufffdhlallee 182\nAllschwil\n4123.00", "channel_of_trade": null}, {"id": "217135211", "name": "BP Tankstelle Zuchwil", "lat": 47.20463, "lng": 7.56361, "site_brand": "BP", "country_code": "CH", "address": "Langfeldstrasse 1", "city": "Zuchwil", "state": null, "postcode": "4528.00", "telephone": "", "facilities": ["alcohol", "accepts_routex_cards", "automatic_site", "open_saturday", "open_sunday"], "products": ["ultimate", "ultimate_unleaded"], "website": null, "watchlist_id": null, "formatted_address": "Langfeldstrasse 1\nZuchwil\n4528.00", "channel_of_trade": null}, {"id": "133170755", "name": "BP Tankstelle Ettingen", "lat": 47.4832455, "lng": 7.54605087, "site_brand": "BP", "country_code": "CH", "address": "Hauptstrasse 6", "city": "Ettingen", "state": null, "postcode": "4107.00", "telephone": "", "facilities": ["alcohol", "accepts_routex_cards", "automatic_site", "open_saturday", "open_sunday"], "products": [], "website": null, "watchlist_id": null, "formatted_address": "Hauptstrasse 6\nEttingen\n4107.00", "channel_of_trade": null}, {"id": "166738326", "name": "BP Tankstelle K\ufffdlliken", "lat": 47.3393002, "lng": 8.02601327, "site_brand": "BP", "country_code": "CH", "address": "Hauptstrasse 3", "city": "K\ufffdlliken", "state": null, "postcode": "5742.00", "telephone": "", "facilities": ["alcohol", "accepts_routex_cards", "automatic_site", "open_saturday", "open_sunday"], "products": ["ultimate", "ultimate_unleaded"], "website": null, "watchlist_id": null, "formatted_address": "Hauptstrasse 3\nK\ufffdlliken\n5742.00", "channel_of_trade": null}, {"id": "148970790", "name": "BP Tankstelle Rupperswil", "lat": 47.407582, "lng": 8.137003, "site_brand": "BP", "country_code": "CH", "address": "Bruggerstrasse 47", "city": "Rupperswil", "state": null, "postcode": "5102.00", "telephone": "", "facilities": ["alcohol", "truck_suitable_site", "accepts_routex_cards", "automatic_site", "open_saturday", "open_sunday"], "products": ["ultimate", "ultimate_unleaded"], "website": null, "watchlist_id": null, "formatted_address": "Bruggerstrasse 47\nRupperswil\n5102.00", "channel_of_trade": null}, {"id": "166780741", "name": "BP Tankstelle Safenwil", "lat": 47.32425, "lng": 7.98028, "site_brand": "BP", "country_code": "CH", "address": "Industriestrasse 3", "city": "Safenwil", "state": null, "postcode": "5745.00", "telephone": "", "facilities": ["alcohol", "accepts_routex_cards", "automatic_site", "open_saturday", "open_sunday"], "products": ["ultimate", "ultimate_diesel", "ultimate_unleaded"], "website": null, "watchlist_id": null, "formatted_address": "Industriestrasse 3\nSafenwil\n5745.00", "channel_of_trade": null}, {"id": "757217370", "name": "BP Service Unterkulm", "lat": 47.31084, "lng": 8.11487, "site_brand": "BP", "country_code": "CH", "address": "Hauptstrasse 26", "city": "Unterkulm", "state": null, "postcode": "5726.00", "telephone": "", "facilities": ["alcohol", "accepts_routex_cards", "open_saturday", "open_sunday"], "products": ["ultimate", "ultimate_unleaded"], "website": null, "watchlist_id": null, "formatted_address": "Hauptstrasse 26\nUnterkulm\n5726.00", "channel_of_trade": null}, {"id": "761076051", "name": "BP Service Telli", "lat": 47.39937, "lng": 8.0657, "site_brand": "BP", "country_code": "CH", "address": "Neumattstrasse 9", "city": "Aarau", "state": null, "postcode": "5000.00", "telephone": "+41 76 335 99 28", "facilities": ["alcohol", "lotto", "tobacco", "shop", "accepts_routex_cards", "open_saturday", "open_sunday"], "products": ["ad_blue_cannister", "natural_gas", "ultimate", "ultimate_diesel", "ultimate_unleaded"], "website": null, "watchlist_id": null, "formatted_address": "Neumattstrasse 9\nAarau\n5000.00", "channel_of_trade": null}, {"id": "1926368926", "name": "BP Tankstelle Rothrist", "lat": 47.30932, "lng": 7.89347, "site_brand": "BP", "country_code": "CH", "address": "Helblingstrasse 1", "city": "Rothrist", "state": null, "postcode": "4852.00", "telephone": "", "facilities": ["alcohol", "accepts_routex_cards", "automatic_site", "open_saturday", "open_sunday"], "products": [], "website": null, "watchlist_id": null, "formatted_address": "Helblingstrasse 1\nRothrist\n4852.00", "channel_of_trade": null}, {"id": "260944480", "name": "BP Service H\u00e4gendorf", "lat": 47.332364, "lng": 7.841378, "site_brand": "BP", "country_code": "CH", "address": "Solothurnstrasse 14", "city": "H\u00e4gendorf", "state": null, "postcode": "4614", "telephone": "+41 848 848 490", "facilities": ["toilet", "shop", "accepts_routex_cards", "accepts_toll_payments", "open_saturday", "open_sunday"], "products": ["ad_blue_cannister", "diesel_on", "unleaded_95"], "website": null, "watchlist_id": null, "formatted_address": "Solothurnstrasse 14\nH\u00e4gendorf\n4614", "channel_of_trade": null}, {"id": "1898518185", "name": "BP Service Rheinfelden", "lat": 47.549066, "lng": 7.771158, "site_brand": "BP", "country_code": "CH", "address": "Weidenweg 24", "city": "Rheinfelden", "state": null, "postcode": "4310", "telephone": "+41 848 848 490", "facilities": ["toilet", "shop", "accepts_routex_cards", "accepts_toll_payments", "open_saturday", "open_sunday"], "products": ["ad_blue_cannister", "diesel_on", "ultimate", "ultimate_unleaded", "unleaded_95"], "website": null, "watchlist_id": null, "formatted_address": "Weidenweg 24\nRheinfelden\n4310", "channel_of_trade": null}, {"id": "1591964308", "name": "BP Tankstelle Sisseln", "lat": 47.5531913, "lng": 7.9913357, "site_brand": "BP", "country_code": "CH", "address": "Hauptstrasse 37", "city": "Sisseln", "state": null, "postcode": "4334", "telephone": "+41 79 322 42 01", "facilities": ["open_24_hours", "accepts_routex_cards", "open_saturday", "open_sunday"], "products": ["diesel_on", "unleaded_95"], "website": null, "watchlist_id": null, "formatted_address": "Hauptstrasse 37\nSisseln\n4334", "channel_of_trade": null}, {"id": "1993146298", "name": "BP Service Langenthal", "lat": 47.223547, "lng": 7.778277, "site_brand": "BP", "country_code": "CH", "address": "Bern - Z\ufffdrichstrasse 95", "city": "Langenthal", "state": null, "postcode": "4900.00", "telephone": "", "facilities": ["alcohol", "lotto", "tobacco", "shop", "accepts_routex_cards", "open_saturday", "open_sunday"], "products": ["ad_blue_cannister", "natural_gas", "ultimate", "ultimate_unleaded"], "website": null, "watchlist_id": null, "formatted_address": "Bern - Z\ufffdrichstrasse 95\nLangenthal\n4900.00", "channel_of_trade": null}, {"id": "1828736427", "name": "BP Service Pratteln-Nord", "lat": 47.52745, "lng": 7.70263, "site_brand": "BP", "country_code": "CH", "address": "Pratteln Nord", "city": "Pratteln", "state": null, "postcode": "4133.00", "telephone": "", "facilities": ["open_24_hours", "alcohol", "lotto", "tobacco", "motorway_site", "shop", "accepts_routex_cards", "open_saturday", "open_sunday"], "products": ["ad_blue_cannister", "natural_gas", "ultimate", "ultimate_diesel", "ultimate_unleaded"], "website": null, "watchlist_id": null, "formatted_address": "Pratteln Nord\nPratteln\n4133.00", "channel_of_trade": null}, {"id": "471852997", "name": "BP Service Pratteln-S\ufffdd", "lat": 47.5272, "lng": 7.69919, "site_brand": "BP", "country_code": "CH", "address": "Pratteln S\ufffdd", "city": "Pratteln", "state": null, "postcode": "4133.00", "telephone": "", "facilities": ["open_24_hours", "alcohol", "lotto", "tobacco", "motorway_site", "shop", "accepts_routex_cards", "open_saturday", "open_sunday"], "products": ["ad_blue_cannister", "natural_gas", "ultimate", "ultimate_diesel", "ultimate_unleaded"], "website": null, "watchlist_id": null, "formatted_address": "Pratteln S\ufffdd\nPratteln\n4133.00", "channel_of_trade": null}, {"id": "541277989", "name": "BP Tankstelle Aarburg Oltnerst", "lat": 47.33348, "lng": 7.90622, "site_brand": "BP", "country_code": "CH", "address": "Oltnerstrasse 101", "city": "Aarburg", "state": null, "postcode": "4663.00", "telephone": "", "facilities": ["alcohol", "accepts_routex_cards", "automatic_site", "open_saturday", "open_sunday"], "products": ["ultimate", "ultimate_unleaded"], "website": null, "watchlist_id": null, "formatted_address": "Oltnerstrasse 101\nAarburg\n4663.00", "channel_of_trade": null}, {"id": "129968074", "name": "BP Tankstelle Niederg\ufffdsgen", "lat": 47.372602, "lng": 7.99438, "site_brand": "BP", "country_code": "CH", "address": "Oltnerstrasse 45", "city": "Niederg\ufffdsgen", "state": null, "postcode": "5013.00", "telephone": "", "facilities": ["alcohol", "accepts_routex_cards", "automatic_site", "open_saturday", "open_sunday"], "products": [], "website": null, "watchlist_id": null, "formatted_address": "Oltnerstrasse 45\nNiederg\ufffdsgen\n5013.00", "channel_of_trade": null}, {"id": "1377808525", "name": "BP Service Frenkendorf", "lat": 47.51478, "lng": 7.71978, "site_brand": "BP", "country_code": "CH", "address": "Rheinstrasse 119", "city": "Frenkendorf", "state": null, "postcode": "4402.00", "telephone": "", "facilities": ["alcohol", "lotto", "tobacco", "car_wash", "shop", "accepts_routex_cards", "open_saturday", "open_sunday"], "products": ["ad_blue_cannister", "ultimate", "ultimate_unleaded"], "website": null, "watchlist_id": null, "formatted_address": "Rheinstrasse 119\nFrenkendorf\n4402.00", "channel_of_trade": null}, {"id": "386983561", "name": "BP Tankstelle Brittnau", "lat": 47.27095, "lng": 7.94916, "site_brand": "BP", "country_code": "CH", "address": "Zofingerstrasse 38", "city": "Brittnau", "state": null, "postcode": "4805.00", "telephone": "", "facilities": ["alcohol", "accepts_routex_cards", "automatic_site", "open_saturday", "open_sunday"], "products": ["ultimate", "ultimate_unleaded"], "website": null, "watchlist_id": null, "formatted_address": "Zofingerstrasse 38\nBrittnau\n4805.00", "channel_of_trade": null}, {"id": "265551227", "name": "BP Tankstelle Langenthal", "lat": 47.21213, "lng": 7.78465, "site_brand": "BP", "country_code": "CH", "address": "Schulhausstrasse 24", "city": "Langenthal", "state": null, "postcode": "4900.00", "telephone": "", "facilities": ["alcohol", "car_wash", "accepts_routex_cards", "automatic_site", "open_saturday", "open_sunday"], "products": ["ultimate", "ultimate_unleaded"], "website": null, "watchlist_id": null, "formatted_address": "Schulhausstrasse 24\nLangenthal\n4900.00", "channel_of_trade": null}, {"id": "1397161292", "name": "BP Service Gunzgen", "lat": 47.31017, "lng": 7.83094, "site_brand": "BP", "country_code": "CH", "address": "Gunzgen-S\ufffdd", "city": "Kappel", "state": null, "postcode": "4616.00", "telephone": "", "facilities": ["open_24_hours", "alcohol", "lotto", "tobacco", "truck_suitable_site", "motorway_site", "shop", "accepts_routex_cards", "open_saturday", "open_sunday"], "products": ["ad_blue_cannister", "ultimate", "ultimate_diesel", "ultimate_unleaded"], "website": null, "watchlist_id": null, "formatted_address": "Gunzgen-S\ufffdd\nKappel\n4616.00", "channel_of_trade": null}, {"id": "602416711", "name": "BP Service Oftringen", "lat": 47.29849, "lng": 7.93454, "site_brand": "BP", "country_code": "CH", "address": "Aeussere Luzernerstrasse 14", "city": "Oftringen", "state": null, "postcode": "4665.00", "telephone": "+41 76 545 51 38", "facilities": ["alcohol", "lotto", "tobacco", "car_wash", "truck_suitable_site", "shop", "accepts_routex_cards", "open_saturday", "open_sunday"], "products": ["ad_blue_cannister", "natural_gas", "ultimate", "ultimate_diesel", "ultimate_unleaded"], "website": null, "watchlist_id": null, "formatted_address": "Aeussere Luzernerstrasse 14\nOftringen\n4665.00", "channel_of_trade": null}, {"id": "591457983", "name": "BP Tankstelle Lenzburg", "lat": 47.38703, "lng": 8.1671, "site_brand": "BP", "country_code": "CH", "address": "Aarauerstrasse 35", "city": "Lenzburg", "state": null, "postcode": "5600.00", "telephone": "", "facilities": ["alcohol", "accepts_routex_cards", "automatic_site", "open_saturday", "open_sunday"], "products": ["ultimate", "ultimate_unleaded"], "website": null, "watchlist_id": null, "formatted_address": "Aarauerstrasse 35\nLenzburg\n5600.00", "channel_of_trade": null}, {"id": "524029786", "name": "BP Tankstelle Breitenbach", "lat": 47.407865, "lng": 7.54253237, "site_brand": "BP", "country_code": "CH", "address": "Laufenstrasse 6", "city": "Breitenbach", "state": null, "postcode": "4226.00", "telephone": "", "facilities": ["alcohol", "truck_suitable_site", "accepts_routex_cards", "automatic_site", "open_saturday", "open_sunday"], "products": ["ultimate", "ultimate_unleaded"], "website": null, "watchlist_id": null, "formatted_address": "Laufenstrasse 6\nBreitenbach\n4226.00", "channel_of_trade": null}, {"id": "2127808565", "name": "BP Tankstelle Mumpf", "lat": 47.5453, "lng": 7.92557, "site_brand": "BP", "country_code": "CH", "address": "Hauptstrasse 5", "city": "Mumpf", "state": null, "postcode": "4322.00", "telephone": "", "facilities": ["alcohol", "accepts_routex_cards", "automatic_site", "open_saturday", "open_sunday"], "products": ["ultimate", "ultimate_unleaded"], "website": null, "watchlist_id": null, "formatted_address": "Hauptstrasse 5\nMumpf\n4322.00", "channel_of_trade": null}, {"id": "422693947", "name": "BP Tankstelle Sissach", "lat": 47.46725, "lng": 7.80058, "site_brand": "BP", "country_code": "CH", "address": "Netzenstrasse 8", "city": "Sissach", "state": null, "postcode": "4450.00", "telephone": "", "facilities": ["alcohol", "car_wash", "truck_suitable_site", "accepts_routex_cards", "automatic_site", "open_saturday", "open_sunday"], "products": ["ultimate", "ultimate_unleaded"], "website": null, "watchlist_id": null, "formatted_address": "Netzenstrasse 8\nSissach\n4450.00", "channel_of_trade": null}, {"id": "677365880", "name": "BP Tankstelle Zeiningen", "lat": 47.5465306, "lng": 7.86890224, "site_brand": "BP", "country_code": "CH", "address": "Haldengasse 37", "city": "Zeiningen", "state": null, "postcode": "4314.00", "telephone": "", "facilities": ["alcohol", "accepts_routex_cards", "automatic_site", "open_saturday", "open_sunday"], "products": [], "website": null, "watchlist_id": null, "formatted_address": "Haldengasse 37\nZeiningen\n4314.00", "channel_of_trade": null}, {"id": "743192618", "name": "BP Tankstelle Sisseln", "lat": 47.5531913, "lng": 7.99133572, "site_brand": "BP", "country_code": "CH", "address": "Hauptstrasse 37", "city": "Sisseln", "state": null, "postcode": "4334.00", "telephone": "", "facilities": ["alcohol", "accepts_routex_cards", "automatic_site", "open_saturday", "open_sunday"], "products": ["ultimate", "ultimate_unleaded"], "website": null, "watchlist_id": null, "formatted_address": "Hauptstrasse 37\nSisseln\n4334.00", "channel_of_trade": null}, {"id": "534795106", "name": "BP Tankstelle Jura", "lat": 47.57157, "lng": 7.55755, "site_brand": "BP", "country_code": "CH", "address": "Burgfelderstrasse 291", "city": "Basel", "state": null, "postcode": "4055.00", "telephone": "", "facilities": ["alcohol", "accepts_routex_cards", "automatic_site", "open_saturday", "open_sunday"], "products": ["ultimate", "ultimate_diesel", "ultimate_unleaded"], "website": null, "watchlist_id": null, "formatted_address": "Burgfelderstrasse 291\nBasel\n4055.00", "channel_of_trade": null}, {"id": "593485504", "name": "BP Service Dreispitz", "lat": 47.53655, "lng": 7.60667, "site_brand": "BP", "country_code": "CH", "address": "Leimgrubenweg 25", "city": "Basel", "state": null, "postcode": "4053.00", "telephone": "", "facilities": ["alcohol", "lotto", "tobacco", "shop", "accepts_routex_cards", "open_saturday", "open_sunday"], "products": ["ad_blue_cannister", "natural_gas", "ultimate", "ultimate_diesel", "ultimate_unleaded"], "website": null, "watchlist_id": null, "formatted_address": "Leimgrubenweg 25\nBasel\n4053.00", "channel_of_trade": null}, {"id": "552345013", "name": "BP Tankstelle Basel", "lat": 47.5616083, "lng": 7.56800918, "site_brand": "BP", "country_code": "CH", "address": "Hegenheimerstrasse 105", "city": "Basel", "state": null, "postcode": "4055.00", "telephone": "", "facilities": ["alcohol", "accepts_routex_cards", "automatic_site", "open_saturday", "open_sunday"], "products": ["ultimate", "ultimate_unleaded"], "website": null, "watchlist_id": null, "formatted_address": "Hegenheimerstrasse 105\nBasel\n4055.00", "channel_of_trade": null}, {"id": "1547105096", "name": "BP Tankstelle M\ufffdriken", "lat": 47.41529, "lng": 8.18534, "site_brand": "BP", "country_code": "CH", "address": "Bruneggerstrasse 8", "city": "M\ufffdriken", "state": null, "postcode": "5103.00", "telephone": "", "facilities": ["alcohol", "accepts_routex_cards", "automatic_site", "open_saturday", "open_sunday"], "products": ["ultimate", "ultimate_unleaded"], "website": null, "watchlist_id": null, "formatted_address": "Bruneggerstrasse 8\nM\ufffdriken\n5103.00", "channel_of_trade": null}, {"id": "2147481554", "name": "BP Service Suhr", "lat": 47.373972, "lng": 8.082979, "site_brand": "BP", "country_code": "CH", "address": "Bernstrasse Ost 11", "city": "Suhr", "state": null, "postcode": "5034.00", "telephone": "", "facilities": ["alcohol", "lotto", "tobacco", "car_wash", "shop", "accepts_routex_cards", "open_saturday", "open_sunday"], "products": ["ad_blue_cannister"], "website": null, "watchlist_id": null, "formatted_address": "Bernstrasse Ost 11\nSuhr\n5034.00", "channel_of_trade": null}, {"id": "1478438957", "name": "BP Tankstelle Sch\ufffdftland", "lat": 47.31248, "lng": 8.04703, "site_brand": "BP", "country_code": "CH", "address": "Holzikerstrasse 14", "city": "Sch\ufffdftland", "state": null, "postcode": "5040.00", "telephone": "", "facilities": ["alcohol", "accepts_routex_cards", "automatic_site", "open_saturday", "open_sunday"], "products": ["ultimate", "ultimate_unleaded"], "website": null, "watchlist_id": null, "formatted_address": "Holzikerstrasse 14\nSch\ufffdftland\n5040.00", "channel_of_trade": null}, {"id": "252509545", "name": "BP Service Dulliken", "lat": 47.3539101, "lng": 7.93278645, "site_brand": "BP", "country_code": "CH", "address": "Im Sch\ufffdfer 2", "city": "Dulliken", "state": null, "postcode": "4657.00", "telephone": "", "facilities": ["alcohol", "lotto", "tobacco", "shop", "accepts_routex_cards", "open_saturday", "open_sunday"], "products": ["ad_blue_cannister", "ultimate", "ultimate_unleaded"], "website": null, "watchlist_id": null, "formatted_address": "Im Sch\ufffdfer 2\nDulliken\n4657.00", "channel_of_trade": null}, {"id": "4996244", "name": "BP Station Porrentruy", "lat": 47.41712, "lng": 7.07228, "site_brand": "BP", "country_code": "CH", "address": "Rue du Gravier 1", "city": "Porrentruy", "state": null, "postcode": "2900.00", "telephone": "", "facilities": ["alcohol", "accepts_routex_cards", "automatic_site", "open_saturday", "open_sunday"], "products": ["ultimate", "ultimate_unleaded"], "website": null, "watchlist_id": null, "formatted_address": "Rue du Gravier 1\nPorrentruy\n2900.00", "channel_of_trade": null}, {"id": "1028393061", "name": "BP Station Saint-Imier", "lat": 47.15009, "lng": 6.99961, "site_brand": "BP", "country_code": "CH", "address": "Talstrasse 73", "city": "Saint-Imier", "state": null, "postcode": "2610.00", "telephone": "", "facilities": ["alcohol", "accepts_routex_cards", "automatic_site", "open_saturday", "open_sunday"], "products": [], "website": null, "watchlist_id": null, "formatted_address": "Talstrasse 73\nSaint-Imier\n2610.00", "channel_of_trade": null}, {"id": "204016810", "name": "BP Tankstelle Orvin", "lat": 47.15976479, "lng": 7.21450987, "site_brand": "BP", "country_code": "CH", "address": "Le Coin 21A", "city": "Orvin", "state": null, "postcode": "2534.00", "telephone": "", "facilities": ["alcohol", "accepts_routex_cards", "automatic_site", "open_saturday", "open_sunday"], "products": ["ultimate", "ultimate_unleaded"], "website": null, "watchlist_id": null, "formatted_address": "Le Coin 21A\nOrvin\n2534.00", "channel_of_trade": null}, {"id": "137536307", "name": "BP Service Arlesheim", "lat": 47.4990472, "lng": 7.61826101, "site_brand": "BP", "country_code": "CH", "address": "Birseckstrasse 5", "city": "Arlesheim", "state": null, "postcode": "4144.00", "telephone": "", "facilities": ["alcohol", "lotto", "tobacco", "shop", "accepts_routex_cards", "open_saturday", "open_sunday"], "products": ["ad_blue_cannister", "ultimate", "ultimate_unleaded"], "website": null, "watchlist_id": null, "formatted_address": "Birseckstrasse 5\nArlesheim\n4144.00", "channel_of_trade": null}, {"id": "667759542", "name": "BP Service Oberwil", "lat": 47.5087, "lng": 7.554762, "site_brand": "BP", "country_code": "CH", "address": "M\ufffdhlemattstrasse 24", "city": "Oberwil", "state": null, "postcode": "4104.00", "telephone": "", "facilities": ["alcohol", "lotto", "tobacco", "shop", "accepts_routex_cards", "open_saturday", "open_sunday"], "products": ["ad_blue_cannister", "natural_gas", "ultimate", "ultimate_unleaded"], "website": null, "watchlist_id": null, "formatted_address": "M\ufffdhlemattstrasse 24\nOberwil\n4104.00", "channel_of_trade": null}, {"id": "2132592678", "name": "BP Service Reinach", "lat": 47.4983336, "lng": 7.5969141, "site_brand": "BP", "country_code": "CH", "address": "Baselstrasse 44", "city": "Reinach", "state": null, "postcode": "4153.00", "telephone": "", "facilities": ["alcohol", "lotto", "tobacco", "shop", "accepts_routex_cards", "open_saturday", "open_sunday"], "products": ["ad_blue_cannister", "ultimate", "ultimate_unleaded"], "website": null, "watchlist_id": null, "formatted_address": "Baselstrasse 44\nReinach\n4153.00", "channel_of_trade": null}, {"id": "201720649", "name": "BP Tankstelle K\ufffdsnacht ZH", "lat": 47.32266, "lng": 8.57816, "site_brand": "BP", "country_code": "CH", "address": "Seestrasse 89", "city": "K\ufffdsnacht ZH", "state": null, "postcode": "8700.00", "telephone": "", "facilities": ["alcohol", "accepts_routex_cards", "automatic_site", "open_saturday", "open_sunday"], "products": ["ultimate", "ultimate_unleaded"], "website": null, "watchlist_id": null, "formatted_address": "Seestrasse 89\nK\ufffdsnacht ZH\n8700.00", "channel_of_trade": null}, {"id": "1280167328", "name": "BP Service Affoltern", "lat": 47.2878, "lng": 8.45202, "site_brand": "BP", "country_code": "CH", "address": "Z\ufffdrichstrasse 187", "city": "Affoltern", "state": null, "postcode": "8910.00", "telephone": "+41 44 500 42 18", "facilities": ["alcohol", "lotto", "tobacco", "car_wash", "truck_suitable_site", "shop", "accepts_routex_cards", "open_saturday", "open_sunday"], "products": ["ad_blue_cannister", "ultimate", "ultimate_diesel", "ultimate_unleaded"], "website": null, "watchlist_id": null, "formatted_address": "Z\ufffdrichstrasse 187\nAffoltern\n8910.00", "channel_of_trade": null}, {"id": "585112645", "name": "BP Service Thalwil", "lat": 47.28652, "lng": 8.56569, "site_brand": "BP", "country_code": "CH", "address": "Gewerbestrasse 24", "city": "Thalwil", "state": null, "postcode": "8800.00", "telephone": "+41 44 501 47 90", "facilities": ["alcohol", "lotto", "tobacco", "shop", "accepts_routex_cards", "open_saturday", "open_sunday"], "products": ["ad_blue_cannister", "ultimate", "ultimate_unleaded"], "website": null, "watchlist_id": null, "formatted_address": "Gewerbestrasse 24\nThalwil\n8800.00", "channel_of_trade": null}, {"id": "334245855", "name": "BP Tankstelle Balgrist", "lat": 47.35343, "lng": 8.57688, "site_brand": "BP", "country_code": "CH", "address": "Forchstrasse 351", "city": "Z\ufffdrich", "state": null, "postcode": "8008.00", "telephone": "", "facilities": ["alcohol", "truck_suitable_site", "accepts_routex_cards", "automatic_site", "open_saturday", "open_sunday"], "products": [], "website": null, "watchlist_id": null, "formatted_address": "Forchstrasse 351\nZ\ufffdrich\n8008.00", "channel_of_trade": null}, {"id": "50184887", "name": "BP Service Kloten", "lat": 47.45489, "lng": 8.57997, "site_brand": "BP", "country_code": "CH", "address": "Schaffhauserstrasse 168", "city": "Kloten", "state": null, "postcode": "8302.00", "telephone": "", "facilities": ["alcohol", "lotto", "tobacco", "car_wash", "truck_suitable_site", "shop", "accepts_routex_cards", "open_saturday", "open_sunday"], "products": ["ad_blue_cannister", "natural_gas", "ultimate", "ultimate_diesel", "ultimate_unleaded"], "website": null, "watchlist_id": "50184887", "formatted_address": "Schaffhauserstrasse 168\nKloten\n8302.00", "channel_of_trade": null}, {"id": "1378671753", "name": "BP Tankstelle Z\ufffdrich Thurgauer", "lat": 47.41391, "lng": 8.54934, "site_brand": "BP", "country_code": "CH", "address": "Thurgauerstrasse 35", "city": "Z\ufffdrich", "state": null, "postcode": "8050.00", "telephone": "", "facilities": ["alcohol", "accepts_routex_cards", "automatic_site", "open_saturday", "open_sunday"], "products": ["ultimate", "ultimate_unleaded"], "website": null, "watchlist_id": null, "formatted_address": "Thurgauerstrasse 35\nZ\ufffdrich\n8050.00", "channel_of_trade": null}, {"id": "822070327", "name": "BP Tankstelle Z\ufffdrich-Flughafen", "lat": 47.4398939, "lng": 8.56245272, "site_brand": "BP", "country_code": "CH", "address": "Flughofstrasse 79", "city": "Z\ufffdrich-Flughafen", "state": null, "postcode": "8058.00", "telephone": "", "facilities": ["alcohol", "accepts_routex_cards", "automatic_site", "open_saturday", "open_sunday"], "products": [], "website": null, "watchlist_id": null, "formatted_address": "Flughofstrasse 79\nZ\ufffdrich-Flughafen\n8058.00", "channel_of_trade": null}, {"id": "1677272649", "name": "BP Tankstelle Z\ufffdrich Badenerst", "lat": 47.38563, "lng": 8.49402, "site_brand": "BP", "country_code": "CH", "address": "Badenerstrasse 600", "city": "Z\ufffdrich", "state": null, "postcode": "8048.00", "telephone": "", "facilities": ["alcohol", "accepts_routex_cards", "automatic_site", "open_saturday", "open_sunday"], "products": [], "website": null, "watchlist_id": null, "formatted_address": "Badenerstrasse 600\nZ\ufffdrich\n8048.00", "channel_of_trade": null}, {"id": "201786150", "name": "BP Service Z\ufffdrich Witikonerstr", "lat": 47.36253, "lng": 8.56802, "site_brand": "BP", "country_code": "CH", "address": "Witikonerstrasse 48", "city": "Z\ufffdrich", "state": null, "postcode": "8032.00", "telephone": "", "facilities": ["alcohol", "lotto", "tobacco", "shop", "accepts_routex_cards", "open_saturday", "open_sunday"], "products": ["ad_blue_cannister"], "website": null, "watchlist_id": null, "formatted_address": "Witikonerstrasse 48\nZ\ufffdrich\n8032.00", "channel_of_trade": null}, {"id": "604040", "name": "BP Service Wollishofen", "lat": 47.34828, "lng": 8.53343, "site_brand": "BP", "country_code": "CH", "address": "Mythenquai 320", "city": "Z\ufffdrich", "state": null, "postcode": "8038.00", "telephone": "+41 44 501 16 40", "facilities": ["open_24_hours", "alcohol", "lotto", "tobacco", "truck_suitable_site", "shop", "accepts_routex_cards", "open_saturday", "open_sunday"], "products": ["ad_blue_cannister", "ultimate", "ultimate_diesel", "ultimate_unleaded"], "website": null, "watchlist_id": null, "formatted_address": "Mythenquai 320\nZ\ufffdrich\n8038.00", "channel_of_trade": null}, {"id": "36833465", "name": "BP Tankstelle Speicher", "lat": 47.4085, "lng": 9.44587, "site_brand": "BP", "country_code": "CH", "address": "Trogenerstrasse 1", "city": "Speicher", "state": null, "postcode": "9042.00", "telephone": "", "facilities": ["alcohol", "accepts_routex_cards", "automatic_site", "open_saturday", "open_sunday"], "products": ["ultimate", "ultimate_unleaded"], "website": null, "watchlist_id": "36833465", "formatted_address": "Trogenerstrasse 1\nSpeicher\n9042.00", "channel_of_trade": null}, {"id": "688273447", "name": "BP Service Weiach", "lat": 47.56332, "lng": 8.42556, "site_brand": "BP", "country_code": "CH", "address": "Kaiserstuhlstrasse 47", "city": "Weiach", "state": null, "postcode": "8187.00", "telephone": "", "facilities": ["alcohol", "lotto", "tobacco", "truck_suitable_site", "shop", "accepts_routex_cards", "open_saturday", "open_sunday"], "products": ["ad_blue_cannister", "ultimate", "ultimate_unleaded"], "website": null, "watchlist_id": null, "formatted_address": "Kaiserstuhlstrasse 47\nWeiach\n8187.00", "channel_of_trade": null}, {"id": "1025632394", "name": "BP Tankstelle Schlieren Z\ufffdrche", "lat": 47.39718, "lng": 8.4608, "site_brand": "BP", "country_code": "CH", "address": "Z\ufffdrcherstrasse 94", "city": "Schlieren", "state": null, "postcode": "8952.00", "telephone": "", "facilities": ["alcohol", "accepts_routex_cards", "automatic_site", "open_saturday", "open_sunday"], "products": [], "website": null, "watchlist_id": null, "formatted_address": "Z\ufffdrcherstrasse 94\nSchlieren\n8952.00", "channel_of_trade": null}, {"id": "753424053", "name": "BP Tankstelle Flaach", "lat": 47.57978, "lng": 8.61271, "site_brand": "BP", "country_code": "CH", "address": "Andelfingerstrasse 16", "city": "Flaach", "state": null, "postcode": "8416.00", "telephone": "", "facilities": ["alcohol", "accepts_routex_cards", "automatic_site", "open_saturday", "open_sunday"], "products": ["ad_blue_pump", "ultimate", "ultimate_unleaded", "ad_blue"], "website": null, "watchlist_id": null, "formatted_address": "Andelfingerstrasse 16\nFlaach\n8416.00", "channel_of_trade": null}, {"id": "1712522102", "name": "BP Service B\ufffdlach", "lat": 47.51287, "lng": 8.54314, "site_brand": "BP", "country_code": "CH", "address": "Z\ufffdrichstrasse 46", "city": "B\ufffdlach", "state": null, "postcode": "8180.00", "telephone": "+41 44 500 49 07", "facilities": ["alcohol", "lotto", "tobacco", "car_wash", "shop", "accepts_routex_cards", "open_saturday", "open_sunday"], "products": ["ad_blue_cannister", "ultimate", "ultimate_diesel", "ultimate_unleaded"], "website": null, "watchlist_id": null, "formatted_address": "Z\ufffdrichstrasse 46\nB\ufffdlach\n8180.00", "channel_of_trade": null}, {"id": "2113850517", "name": "BP Service Embrach", "lat": 47.49769, "lng": 8.59572, "site_brand": "BP", "country_code": "CH", "address": "Z\ufffdrcherstrasse 74", "city": "Embrach", "state": null, "postcode": "8424.00", "telephone": "+41 44 500 77 34", "facilities": ["alcohol", "lotto", "tobacco", "truck_suitable_site", "shop", "accepts_routex_cards", "open_saturday", "open_sunday"], "products": ["ad_blue_cannister", "ultimate", "ultimate_unleaded"], "website": null, "watchlist_id": null, "formatted_address": "Z\ufffdrcherstrasse 74\nEmbrach\n8424.00", "channel_of_trade": null}, {"id": "240639291", "name": "BP Service Regensdorf", "lat": 47.43226, "lng": 8.4689, "site_brand": "BP", "country_code": "CH", "address": "Roosstrasse 30", "city": "Regensdorf", "state": null, "postcode": "8105.00", "telephone": "+41 44 500 25 19", "facilities": ["alcohol", "lotto", "tobacco", "car_wash", "truck_suitable_site", "shop", "accepts_routex_cards", "open_saturday", "open_sunday"], "products": ["ad_blue_cannister", "ultimate", "ultimate_diesel", "ultimate_unleaded"], "website": null, "watchlist_id": null, "formatted_address": "Roosstrasse 30\nRegensdorf\n8105.00", "channel_of_trade": null}, {"id": "1007857519", "name": "BP Service R\ufffdmlang", "lat": 47.452633, "lng": 8.537591, "site_brand": "BP", "country_code": "CH", "address": "Flughofstrasse 47", "city": "R\ufffdmlang", "state": null, "postcode": "8153.00", "telephone": "+41 44 500 38 67", "facilities": ["alcohol", "lotto", "tobacco", "truck_suitable_site", "shop", "accepts_routex_cards", "open_saturday", "open_sunday"], "products": ["ad_blue_cannister", "ultimate", "ultimate_diesel", "ultimate_unleaded"], "website": null, "watchlist_id": null, "formatted_address": "Flughofstrasse 47\nR\ufffdmlang\n8153.00", "channel_of_trade": null}, {"id": "937574316", "name": "BP Service Leimbach", "lat": 47.32901, "lng": 8.51734, "site_brand": "BP", "country_code": "CH", "address": "Soodstrasse 42", "city": "Z\ufffdrich", "state": null, "postcode": "8041.00", "telephone": "+41 44 501 47 80", "facilities": ["alcohol", "lotto", "tobacco", "shop", "accepts_routex_cards", "open_saturday", "open_sunday"], "products": ["ad_blue_cannister", "ultimate", "ultimate_diesel", "ultimate_unleaded"], "website": null, "watchlist_id": null, "formatted_address": "Soodstrasse 42\nZ\ufffdrich\n8041.00", "channel_of_trade": null}, {"id": "201513306", "name": "BP Service Wiedikon", "lat": 47.37285, "lng": 8.52111, "site_brand": "BP", "country_code": "CH", "address": "Seebahnstrasse 110", "city": "Z\ufffdrich", "state": null, "postcode": "8003.00", "telephone": "+41 44 500 41 57", "facilities": ["open_24_hours", "alcohol", "lotto", "tobacco", "truck_suitable_site", "shop", "accepts_routex_cards", "open_saturday", "open_sunday"], "products": ["ad_blue_cannister", "ultimate", "ultimate_diesel", "ultimate_unleaded"], "website": null, "watchlist_id": null, "formatted_address": "Seebahnstrasse 110\nZ\ufffdrich\n8003.00", "channel_of_trade": null}, {"id": "1827607197", "name": "BP Service Airport", "lat": 47.44886, "lng": 8.56645, "site_brand": "BP", "country_code": "CH", "address": "Flughafenstrasse 79", "city": "Z\ufffdrich-Flughafen", "state": null, "postcode": "8060.00", "telephone": "+41 44 500 43 28", "facilities": ["open_24_hours", "alcohol", "lotto", "tobacco", "car_wash", "truck_suitable_site", "shop", "accepts_routex_cards", "open_saturday", "open_sunday"], "products": ["ad_blue_cannister", "ultimate", "ultimate_diesel", "ultimate_unleaded"], "website": null, "watchlist_id": null, "formatted_address": "Flughafenstrasse 79\nZ\ufffdrich-Flughafen\n8060.00", "channel_of_trade": null}, {"id": "1011010886", "name": "BP Tankstelle M\ufffdhlental", "lat": 47.7155, "lng": 8.63209, "site_brand": "BP", "country_code": "CH", "address": "M\ufffdhlentalstrasse", "city": "Schaffhausen", "state": null, "postcode": "8200.00", "telephone": "", "facilities": ["alcohol", "truck_suitable_site", "accepts_routex_cards", "automatic_site", "open_saturday", "open_sunday"], "products": [], "website": null, "watchlist_id": null, "formatted_address": "M\ufffdhlentalstrasse\nSchaffhausen\n8200.00", "channel_of_trade": null}, {"id": "1289814692", "name": "BP Tankstelle W\ufffdngi", "lat": 47.499351, "lng": 8.950432, "site_brand": "BP", "country_code": "CH", "address": "Frauenfelderstrasse 29", "city": "W\ufffdngi", "state": null, "postcode": "9545.00", "telephone": "", "facilities": ["alcohol", "accepts_routex_cards", "automatic_site", "open_saturday", "open_sunday"], "products": [], "website": null, "watchlist_id": null, "formatted_address": "Frauenfelderstrasse 29\nW\ufffdngi\n9545.00", "channel_of_trade": null}, {"id": "1666248118", "name": "BP Tankstelle Fischenthal", "lat": 47.329756, "lng": 8.918959, "site_brand": "BP", "country_code": "CH", "address": "T\ufffdsstalstrasse 438", "city": "Fischenthal", "state": null, "postcode": "8497.00", "telephone": "", "facilities": ["alcohol", "accepts_routex_cards", "automatic_site", "open_saturday", "open_sunday"], "products": [], "website": null, "watchlist_id": null, "formatted_address": "T\ufffdsstalstrasse 438\nFischenthal\n8497.00", "channel_of_trade": null}, {"id": "2131211199", "name": "BP Tankstelle G\ufffdhwil", "lat": 47.397302, "lng": 9.00641, "site_brand": "BP", "country_code": "CH", "address": "Kirchbergerstrasse 36", "city": "G\ufffdhwil", "state": null, "postcode": "9534.00", "telephone": "", "facilities": ["alcohol", "accepts_routex_cards", "automatic_site", "open_saturday", "open_sunday"], "products": ["ultimate", "ultimate_unleaded"], "website": null, "watchlist_id": null, "formatted_address": "Kirchbergerstrasse 36\nG\ufffdhwil\n9534.00", "channel_of_trade": null}, {"id": "139590765", "name": "BP Service Uznach", "lat": 47.22754, "lng": 8.97245, "site_brand": "BP", "country_code": "CH", "address": "Z\ufffdrcherstrasse 71", "city": "Uznach", "state": null, "postcode": "8730.00", "telephone": "", "facilities": ["alcohol", "lotto", "tobacco", "shop", "accepts_routex_cards", "open_saturday", "open_sunday"], "products": ["ad_blue_cannister", "ultimate", "ultimate_unleaded"], "website": null, "watchlist_id": null, "formatted_address": "Z\ufffdrcherstrasse 71\nUznach\n8730.00", "channel_of_trade": null}, {"id": "1930624329", "name": "BP Tankstelle Eurospar Sch\ufffdnis", "lat": 47.155711, "lng": 9.03795, "site_brand": "BP", "country_code": "CH", "address": "Biltnerstrasse 32", "city": "Sch\ufffdnis", "state": null, "postcode": "8718.00", "telephone": "", "facilities": ["alcohol", "accepts_routex_cards", "automatic_site", "open_saturday", "open_sunday"], "products": ["ultimate", "ultimate_unleaded"], "website": null, "watchlist_id": null, "formatted_address": "Biltnerstrasse 32\nSch\ufffdnis\n8718.00", "channel_of_trade": null}, {"id": "1305265770", "name": "BP Tankstelle Will Z\ufffdrcherstra", "lat": 47.46496, "lng": 9.03435, "site_brand": "BP", "country_code": "CH", "address": "Z\ufffdrcherstrasse 59", "city": "Wil", "state": null, "postcode": "9501.00", "telephone": "", "facilities": ["alcohol", "accepts_routex_cards", "automatic_site", "open_saturday", "open_sunday"], "products": ["ultimate", "ultimate_unleaded"], "website": null, "watchlist_id": null, "formatted_address": "Z\ufffdrcherstrasse 59\nWil\n9501.00", "channel_of_trade": null}, {"id": "542061501", "name": "BP Service Wetzikon", "lat": 47.32775, "lng": 8.78248, "site_brand": "BP", "country_code": "CH", "address": "Z\ufffdrcherstrasse 86", "city": "Wetzikon", "state": null, "postcode": "8620.00", "telephone": "+41 44 500 23 49", "facilities": ["alcohol", "lotto", "tobacco", "car_wash", "truck_suitable_site", "shop", "accepts_routex_cards", "open_saturday", "open_sunday"], "products": ["ad_blue_cannister", "natural_gas", "ultimate", "ultimate_diesel", "ultimate_unleaded"], "website": null, "watchlist_id": null, "formatted_address": "Z\ufffdrcherstrasse 86\nWetzikon\n8620.00", "channel_of_trade": null}, {"id": "316673382", "name": "BP Service Kreuzlingen", "lat": 47.642095, "lng": 9.189066, "site_brand": "BP", "country_code": "CH", "address": "Romanshornerstrasse 35", "city": "Kreuzlingen", "state": null, "postcode": "8280.00", "telephone": "", "facilities": ["alcohol", "lotto", "tobacco", "shop", "accepts_routex_cards", "open_saturday", "open_sunday"], "products": ["ad_blue_cannister", "ultimate", "ultimate_unleaded"], "website": null, "watchlist_id": null, "formatted_address": "Romanshornerstrasse 35\nKreuzlingen\n8280.00", "channel_of_trade": null}, {"id": "775687714", "name": "BP Tankstelle Bleikenstrasse", "lat": 47.291437, "lng": 9.089657, "site_brand": "BP", "country_code": "CH", "address": "Bleikenstrasse 45", "city": "Wattwil", "state": null, "postcode": "9630.00", "telephone": "", "facilities": ["alcohol", "accepts_routex_cards", "automatic_site", "open_saturday", "open_sunday"], "products": ["ultimate", "ultimate_diesel"], "website": null, "watchlist_id": null, "formatted_address": "Bleikenstrasse 45\nWattwil\n9630.00", "channel_of_trade": null}, {"id": "1069748097", "name": "BP Tankstelle Wattwil Rickenst", "lat": 47.300587, "lng": 9.084691, "site_brand": "BP", "country_code": "CH", "address": "Rickenstrasse 11", "city": "Wattwil", "state": null, "postcode": "9630.00", "telephone": "", "facilities": ["alcohol", "accepts_routex_cards", "automatic_site", "open_saturday", "open_sunday"], "products": [], "website": null, "watchlist_id": null, "formatted_address": "Rickenstrasse 11\nWattwil\n9630.00", "channel_of_trade": null}, {"id": "819412318", "name": "BP Tankstelle Lichtensteig Wil", "lat": 47.292125, "lng": 9.089426, "site_brand": "BP", "country_code": "CH", "address": "Wilerstrasse 146", "city": "Lichtensteig", "state": null, "postcode": "9620.00", "telephone": "", "facilities": ["alcohol", "accepts_routex_cards", "automatic_site", "open_saturday", "open_sunday"], "products": [], "website": null, "watchlist_id": null, "formatted_address": "Wilerstrasse 146\nLichtensteig\n9620.00", "channel_of_trade": null}, {"id": "1641943682", "name": "BP Service Thurau Nord", "lat": 47.460971, "lng": 9.094341, "site_brand": "BP", "country_code": "CH", "address": "9501 Will, A1 Nord", "city": "Wil", "state": null, "postcode": "9501.00", "telephone": "", "facilities": ["alcohol", "lotto", "tobacco", "motorway_site", "shop", "accepts_routex_cards", "open_saturday", "open_sunday"], "products": ["ad_blue_cannister", "ultimate", "ultimate_diesel", "ultimate_unleaded"], "website": null, "watchlist_id": null, "formatted_address": "9501 Will, A1 Nord\nWil\n9501.00", "channel_of_trade": null}, {"id": "1070394534", "name": "BP Service Thurau S\ufffdd", "lat": 47.459999, "lng": 9.093654, "site_brand": "BP", "country_code": "CH", "address": "9501 Will, A1 S\ufffdd", "city": "Wil", "state": null, "postcode": "9501.00", "telephone": "", "facilities": ["alcohol", "lotto", "tobacco", "motorway_site", "shop", "accepts_routex_cards", "open_saturday", "open_sunday"], "products": ["ad_blue_cannister", "ultimate", "ultimate_diesel", "ultimate_unleaded"], "website": null, "watchlist_id": null, "formatted_address": "9501 Will, A1 S\ufffdd\nWil\n9501.00", "channel_of_trade": null}, {"id": "1175506021", "name": "BP Service Wattwil", "lat": 47.297619, "lng": 9.092152, "site_brand": "BP", "country_code": "CH", "address": "Ebnaterstrasse 63", "city": "Wattwil", "state": null, "postcode": "9630.00", "telephone": "+41 71 511 21 46", "facilities": ["alcohol", "lotto", "tobacco", "truck_suitable_site", "shop", "accepts_routex_cards", "open_saturday", "open_sunday"], "products": ["ad_blue_cannister", "ultimate", "ultimate_unleaded"], "website": null, "watchlist_id": null, "formatted_address": "Ebnaterstrasse 63\nWattwil\n9630.00", "channel_of_trade": null}, {"id": "2084437565", "name": "BP Tankstelle Gr\ufffdt", "lat": 47.30629, "lng": 8.78048, "site_brand": "BP", "country_code": "CH", "address": "Gr\ufffdningerstrasse 80", "city": "Gr\ufffdt", "state": null, "postcode": "8624.00", "telephone": "", "facilities": ["alcohol", "accepts_routex_cards", "automatic_site", "open_saturday", "open_sunday"], "products": ["ultimate", "ultimate_unleaded"], "website": null, "watchlist_id": null, "formatted_address": "Gr\ufffdningerstrasse 80\nGr\ufffdt\n8624.00", "channel_of_trade": null}, {"id": "872392766", "name": "BP Tankstelle Winterthur Gr\ufffdze", "lat": 47.49261, "lng": 8.75931, "site_brand": "BP", "country_code": "CH", "address": "Gr\ufffdzefeldstrasse 65", "city": "Winterthur", "state": null, "postcode": "8404.00", "telephone": "", "facilities": ["alcohol", "accepts_routex_cards", "automatic_site", "open_saturday", "open_sunday"], "products": ["ultimate", "ultimate_unleaded"], "website": null, "watchlist_id": null, "formatted_address": "Gr\ufffdzefeldstrasse 65\nWinterthur\n8404.00", "channel_of_trade": null}, {"id": "867164845", "name": "BP Service Weinland West", "lat": 47.5814, "lng": 8.6837, "site_brand": "BP", "country_code": "CH", "address": "Hauptstrasse 4", "city": "Adlikon bei Andelfingen", "state": null, "postcode": "8452.00", "telephone": "+41 76 594 86 17", "facilities": ["alcohol", "lotto", "tobacco", "motorway_site", "shop", "accepts_routex_cards", "open_saturday", "open_sunday"], "products": ["ad_blue_cannister", "ultimate", "ultimate_unleaded"], "website": null, "watchlist_id": null, "formatted_address": "Hauptstrasse 4\nAdlikon bei Andelfingen\n8452.00", "channel_of_trade": null}, {"id": "1057080172", "name": "BP Service Kemptthal Nord", "lat": 47.45191, "lng": 8.70142, "site_brand": "BP", "country_code": "CH", "address": "A1", "city": "Kemptthal", "state": null, "postcode": "8310.00", "telephone": "+41 76 701 15 78", "facilities": ["alcohol", "lotto", "tobacco", "truck_suitable_site", "motorway_site", "shop", "accepts_routex_cards", "open_saturday", "open_sunday"], "products": ["ad_blue_cannister", "ultimate", "ultimate_diesel", "ultimate_unleaded"], "website": null, "watchlist_id": null, "formatted_address": "A1\nKemptthal\n8310.00", "channel_of_trade": null}, {"id": "1039090162", "name": "BP Tankstelle Jona", "lat": 47.24438, "lng": 8.82984, "site_brand": "BP", "country_code": "CH", "address": "R\ufffdtistrasse 163", "city": "Jona", "state": null, "postcode": "8645.00", "telephone": "", "facilities": ["alcohol", "accepts_routex_cards", "automatic_site", "open_saturday", "open_sunday"], "products": ["natural_gas", "ultimate", "ultimate_unleaded"], "website": null, "watchlist_id": null, "formatted_address": "R\ufffdtistrasse 163\nJona\n8645.00", "channel_of_trade": null}, {"id": "801977977", "name": "BP Tankstelle Cham", "lat": 47.18573, "lng": 8.45416, "site_brand": "BP", "country_code": "CH", "address": "Sinserstrasse 45", "city": "Cham", "state": null, "postcode": "6330.00", "telephone": "", "facilities": ["alcohol", "accepts_routex_cards", "automatic_site", "open_saturday", "open_sunday"], "products": ["ultimate", "ultimate_unleaded"], "website": null, "watchlist_id": null, "formatted_address": "Sinserstrasse 45\nCham\n6330.00", "channel_of_trade": null}, {"id": "475906593", "name": "BP Service Baar", "lat": 47.184368, "lng": 8.518867, "site_brand": "BP", "country_code": "CH", "address": "Zugerstrasse 60", "city": "Baar", "state": null, "postcode": "6340.00", "telephone": "+41 41 510 80 74", "facilities": ["alcohol", "lotto", "tobacco", "shop", "accepts_routex_cards", "open_saturday", "open_sunday"], "products": ["ad_blue_cannister", "ultimate", "ultimate_diesel", "ultimate_unleaded"], "website": null, "watchlist_id": null, "formatted_address": "Zugerstrasse 60\nBaar\n6340.00", "channel_of_trade": null}, {"id": "2091793815", "name": "BP Service Weinland Ost", "lat": 47.58166, "lng": 8.68283, "site_brand": "BP", "country_code": "CH", "address": "Hauptstrasse 4", "city": "Adlikon bei Andelfingen", "state": null, "postcode": "8452.00", "telephone": "+41 76 815 60 87", "facilities": ["alcohol", "lotto", "tobacco", "truck_suitable_site", "motorway_site", "shop", "accepts_routex_cards", "open_saturday", "open_sunday"], "products": ["ad_blue_cannister", "ultimate", "ultimate_diesel", "ultimate_unleaded"], "website": null, "watchlist_id": null, "formatted_address": "Hauptstrasse 4\nAdlikon bei Andelfingen\n8452.00", "channel_of_trade": null}, {"id": "1579146347", "name": "BP Tankstelle D\ufffdbendorf", "lat": 47.40093, "lng": 8.61978, "site_brand": "BP", "country_code": "CH", "address": "\ufffdberlandstrasse 189", "city": "D\ufffdbendorf", "state": null, "postcode": "8600.00", "telephone": "", "facilities": ["alcohol", "accepts_routex_cards", "automatic_site", "open_saturday", "open_sunday"], "products": [], "website": null, "watchlist_id": null, "formatted_address": "\ufffdberlandstrasse 189\nD\ufffdbendorf\n8600.00", "channel_of_trade": null}, {"id": "1593904694", "name": "BP Service Reichenburg", "lat": 47.169773, "lng": 8.975433, "site_brand": "BP", "country_code": "CH", "address": "Gl\ufffdnternstrasse", "city": "Reichenburg", "state": null, "postcode": "8864.00", "telephone": "", "facilities": ["alcohol", "lotto", "tobacco", "truck_suitable_site", "shop", "accepts_routex_cards", "open_saturday", "open_sunday"], "products": ["ad_blue_cannister", "natural_gas", "ultimate", "ultimate_unleaded"], "website": null, "watchlist_id": null, "formatted_address": "Gl\ufffdnternstrasse\nReichenburg\n8864.00", "channel_of_trade": null}, {"id": "1377750477", "name": "BP Tankstelle B\ufffdtschwil", "lat": 47.363106, "lng": 9.07343, "site_brand": "BP", "country_code": "CH", "address": "Landstrasse 46", "city": "B\ufffdtschwil", "state": null, "postcode": "9606.00", "telephone": "", "facilities": ["alcohol", "accepts_routex_cards", "automatic_site", "open_saturday", "open_sunday"], "products": [], "website": null, "watchlist_id": null, "formatted_address": "Landstrasse 46\nB\ufffdtschwil\n9606.00", "channel_of_trade": null}, {"id": "1371492787", "name": "BP Tankstelle Lichtensteig Lor", "lat": 47.329035, "lng": 9.084641, "site_brand": "BP", "country_code": "CH", "address": "Loretostrasse 57", "city": "Lichtensteig", "state": null, "postcode": "9620.00", "telephone": "", "facilities": ["alcohol", "accepts_routex_cards", "automatic_site", "open_saturday", "open_sunday"], "products": [], "website": null, "watchlist_id": null, "formatted_address": "Loretostrasse 57\nLichtensteig\n9620.00", "channel_of_trade": null}, {"id": "115993901", "name": "BP Tankstelle Nesslau", "lat": 47.2262, "lng": 9.1991, "site_brand": "BP", "country_code": "CH", "address": "Hauptstrasse 25", "city": "Nesslau", "state": null, "postcode": "9650.00", "telephone": "", "facilities": ["alcohol", "accepts_routex_cards", "automatic_site", "open_saturday", "open_sunday"], "products": [], "website": null, "watchlist_id": null, "formatted_address": "Hauptstrasse 25\nNesslau\n9650.00", "channel_of_trade": null}, {"id": "487347968", "name": "BP Tankstelle Ebnat - Kappel", "lat": 47.255451, "lng": 9.151225, "site_brand": "BP", "country_code": "CH", "address": "Horben", "city": "Ebnat-Kappel", "state": null, "postcode": "9642.00", "telephone": "", "facilities": ["alcohol", "accepts_routex_cards", "automatic_site", "open_saturday", "open_sunday"], "products": ["ultimate", "ultimate_unleaded"], "website": null, "watchlist_id": null, "formatted_address": "Horben\nEbnat-Kappel\n9642.00", "channel_of_trade": null}, {"id": "316800638", "name": "BP Tankstelle Schlieren", "lat": 47.39697, "lng": 8.44048, "site_brand": "BP", "country_code": "CH", "address": "Badenerstrasse 42", "city": "Schlieren", "state": null, "postcode": "8952.00", "telephone": "", "facilities": ["alcohol", "accepts_routex_cards", "automatic_site", "open_saturday", "open_sunday"], "products": ["ultimate", "ultimate_unleaded"], "website": null, "watchlist_id": null, "formatted_address": "Badenerstrasse 42\nSchlieren\n8952.00", "channel_of_trade": null}, {"id": "585163306", "name": "BP Service Engstringen", "lat": 47.41201, "lng": 8.45499, "site_brand": "BP", "country_code": "CH", "address": "Z\ufffdrcherstrasse 4", "city": "Unterengstringen", "state": null, "postcode": "8103.00", "telephone": "+41 44 500 26 53", "facilities": ["alcohol", "lotto", "tobacco", "truck_suitable_site", "shop", "accepts_routex_cards", "open_saturday", "open_sunday"], "products": ["ad_blue_cannister", "ultimate", "ultimate_diesel", "ultimate_unleaded"], "website": null, "watchlist_id": null, "formatted_address": "Z\ufffdrcherstrasse 4\nUnterengstringen\n8103.00", "channel_of_trade": null}, {"id": "799548052", "name": "BP Service Neuhausen", "lat": 47.6842, "lng": 8.61204, "site_brand": "BP", "country_code": "CH", "address": "Klettgauerstrasse 45", "city": "Neuhausen", "state": null, "postcode": "8212.00", "telephone": "", "facilities": ["alcohol", "lotto", "tobacco", "shop", "accepts_routex_cards", "open_saturday", "open_sunday"], "products": ["ad_blue_cannister", "ultimate", "ultimate_unleaded"], "website": null, "watchlist_id": null, "formatted_address": "Klettgauerstrasse 45\nNeuhausen\n8212.00", "channel_of_trade": null}, {"id": "1729085861", "name": "BP Service Wohlen", "lat": 47.35067, "lng": 8.27237, "site_brand": "BP", "country_code": "CH", "address": "Zentralstrasse 54", "city": "Wohlen", "state": null, "postcode": "5610.00", "telephone": "+41 56 511 05 30", "facilities": ["alcohol", "lotto", "tobacco", "truck_suitable_site", "shop", "accepts_routex_cards", "open_saturday", "open_sunday"], "products": ["ad_blue_cannister", "ultimate", "ultimate_diesel", "ultimate_unleaded"], "website": null, "watchlist_id": null, "formatted_address": "Zentralstrasse 54\nWohlen\n5610.00", "channel_of_trade": null}, {"id": "1812544875", "name": "BP Tankstelle Mettlen", "lat": 47.53088, "lng": 9.12459, "site_brand": "BP", "country_code": "CH", "address": "B\ufffdrglenstrasse 1", "city": "Mettlen", "state": null, "postcode": "9517.00", "telephone": "", "facilities": ["alcohol", "accepts_routex_cards", "automatic_site", "open_saturday", "open_sunday"], "products": [], "website": null, "watchlist_id": null, "formatted_address": "B\ufffdrglenstrasse 1\nMettlen\n9517.00", "channel_of_trade": null}, {"id": "1927072827", "name": "BP Service Fislisbach", "lat": 47.437101, "lng": 8.291716, "site_brand": "BP", "country_code": "CH", "address": "Badenerstrasse 14", "city": "Fislisbach", "state": null, "postcode": "5442.00", "telephone": "", "facilities": ["alcohol", "lotto", "tobacco", "shop", "accepts_routex_cards", "open_saturday", "open_sunday"], "products": ["ad_blue_cannister", "ultimate", "ultimate_unleaded"], "website": null, "watchlist_id": null, "formatted_address": "Badenerstrasse 14\nFislisbach\n5442.00", "channel_of_trade": null}, {"id": "387773339", "name": "BP Service Spreitenbach", "lat": 47.4183, "lng": 8.37526, "site_brand": "BP", "country_code": "CH", "address": "Willestrasse 2", "city": "Spreitenbach", "state": null, "postcode": "8957.00", "telephone": "+41 56 511 05 32", "facilities": ["alcohol", "lotto", "tobacco", "truck_suitable_site", "shop", "accepts_routex_cards", "open_saturday", "open_sunday"], "products": ["ad_blue_cannister", "ultimate", "ultimate_diesel", "ultimate_unleaded"], "website": null, "watchlist_id": null, "formatted_address": "Willestrasse 2\nSpreitenbach\n8957.00", "channel_of_trade": null}, {"id": "1826376834", "name": "BP Service Wettingen", "lat": 47.462707, "lng": 8.33308, "site_brand": "BP", "country_code": "CH", "address": "Landstrasse 148", "city": "Wettingen", "state": null, "postcode": "5430.00", "telephone": "+41 56 511 02 44", "facilities": ["alcohol", "lotto", "tobacco", "shop", "accepts_routex_cards", "open_saturday", "open_sunday"], "products": ["ad_blue_cannister", "ultimate", "ultimate_diesel", "ultimate_unleaded"], "website": null, "watchlist_id": null, "formatted_address": "Landstrasse 148\nWettingen\n5430.00", "channel_of_trade": null}, {"id": "691140683", "name": "BP Tankstelle Waltenschwil", "lat": 47.3343106, "lng": 8.30793092, "site_brand": "BP", "country_code": "CH", "address": "Bremgartenstrasse 39", "city": "Waltenschwil", "state": null, "postcode": "5622.00", "telephone": "", "facilities": ["alcohol", "accepts_routex_cards", "automatic_site", "open_saturday", "open_sunday"], "products": [], "website": null, "watchlist_id": null, "formatted_address": "Bremgartenstrasse 39\nWaltenschwil\n5622.00", "channel_of_trade": null}, {"id": "504181158", "name": "BP Service Affoltern", "lat": 47.2878, "lng": 8.45202, "site_brand": "BP", "country_code": "CH", "address": "Z\u00fcrichstrasse 187", "city": "Affoltern", "state": null, "postcode": "8910", "telephone": "+41 43 333 98 01", "facilities": ["car_wash", "truck_parking", "truck_suitable_site", "toilet", "shop", "wild_bean_cafe", "accepts_routex_cards", "accepts_toll_payments", "open_saturday", "open_sunday"], "products": ["ad_blue_cannister", "ad_blue_pump", "diesel_on", "ultimate", "ultimate_diesel", "ultimate_unleaded", "unleaded_95", "ad_blue"], "website": null, "watchlist_id": null, "formatted_address": "Z\u00fcrichstrasse 187\nAffoltern\n8910", "channel_of_trade": null}, {"id": "1322454190", "name": "BP Tankstelle Frauenfeld Langf", "lat": 47.57145, "lng": 8.9144, "site_brand": "BP", "country_code": "CH", "address": "Langfeldstrasse 105", "city": "Frauenfeld", "state": null, "postcode": "8501.00", "telephone": "", "facilities": ["alcohol", "accepts_routex_cards", "automatic_site", "open_saturday", "open_sunday"], "products": ["ultimate", "ultimate_unleaded"], "website": null, "watchlist_id": null, "formatted_address": "Langfeldstrasse 105\nFrauenfeld\n8501.00", "channel_of_trade": null}, {"id": "1460879904", "name": "BP Tankstelle M\ufffdrwil", "lat": 47.533668, "lng": 9.070067, "site_brand": "BP", "country_code": "CH", "address": "Bahnhofgarage, Hauptstrasse 14", "city": "M\ufffdrwil", "state": null, "postcode": "9562.00", "telephone": "", "facilities": ["alcohol", "accepts_routex_cards", "automatic_site", "open_saturday", "open_sunday"], "products": [], "website": null, "watchlist_id": null, "formatted_address": "Bahnhofgarage, Hauptstrasse 14\nM\ufffdrwil\n9562.00", "channel_of_trade": null}, {"id": "1373564983", "name": "BP Tankstelle Sulgen", "lat": 47.54538, "lng": 9.18372, "site_brand": "BP", "country_code": "CH", "address": "Romanshornstrasse 13", "city": "Sulgen", "state": null, "postcode": "8583.00", "telephone": "", "facilities": ["alcohol", "accepts_routex_cards", "automatic_site", "open_saturday", "open_sunday"], "products": [], "website": null, "watchlist_id": null, "formatted_address": "Romanshornstrasse 13\nSulgen\n8583.00", "channel_of_trade": null}, {"id": "789590591", "name": "BP Tankstelle B\ufffdrglen", "lat": 47.54924, "lng": 9.15669, "site_brand": "BP", "country_code": "CH", "address": "Sulgerstrasse 14", "city": "B\ufffdrglen", "state": null, "postcode": "8575.00", "telephone": "", "facilities": ["alcohol", "accepts_routex_cards", "automatic_site", "open_saturday", "open_sunday"], "products": [], "website": null, "watchlist_id": null, "formatted_address": "Sulgerstrasse 14\nB\ufffdrglen\n8575.00", "channel_of_trade": null}, {"id": "586017218", "name": "BP Tankstelle Mannenbach", "lat": 47.673226, "lng": 9.053394, "site_brand": "BP", "country_code": "CH", "address": "Hauptstrasse 34", "city": "Mannenbach-Salenstein", "state": null, "postcode": "8268.00", "telephone": "", "facilities": ["alcohol", "accepts_routex_cards", "automatic_site", "open_saturday", "open_sunday"], "products": [], "website": null, "watchlist_id": null, "formatted_address": "Hauptstrasse 34\nMannenbach-Salenstein\n8268.00", "channel_of_trade": null}, {"id": "2136201436", "name": "BP Tankstelle Ricken", "lat": 47.261646, "lng": 9.041845, "site_brand": "BP", "country_code": "CH", "address": "Rapperswilerstrasse 17", "city": "Ricken", "state": null, "postcode": "8726.00", "telephone": "", "facilities": ["alcohol", "accepts_routex_cards", "automatic_site", "open_saturday", "open_sunday"], "products": ["ultimate", "ultimate_unleaded"], "website": null, "watchlist_id": null, "formatted_address": "Rapperswilerstrasse 17\nRicken\n8726.00", "channel_of_trade": null}, {"id": "489669567", "name": "BP Tankstelle Gommiswald", "lat": 47.23449, "lng": 9.021154, "site_brand": "BP", "country_code": "CH", "address": "Rickenstrasse 40", "city": "Gommiswald", "state": null, "postcode": "8737.00", "telephone": "", "facilities": ["alcohol", "accepts_routex_cards", "automatic_site", "open_saturday", "open_sunday"], "products": ["ultimate", "ultimate_unleaded"], "website": null, "watchlist_id": null, "formatted_address": "Rickenstrasse 40\nGommiswald\n8737.00", "channel_of_trade": null}, {"id": "1581436737", "name": "BP Tankstelle M\ufffdrstetten Gillh", "lat": 47.584906, "lng": 9.057755, "site_brand": "BP", "country_code": "CH", "address": "Gillhofstrasse 9", "city": "M\ufffdrstetten", "state": null, "postcode": "8560.00", "telephone": "", "facilities": ["alcohol", "accepts_routex_cards", "automatic_site", "open_saturday", "open_sunday"], "products": ["ultimate", "ultimate_unleaded"], "website": null, "watchlist_id": null, "formatted_address": "Gillhofstrasse 9\nM\ufffdrstetten\n8560.00", "channel_of_trade": null}, {"id": "322436156", "name": "BP Tankstelle M\ufffdnchwilen", "lat": 47.47747, "lng": 8.99777, "site_brand": "BP", "country_code": "CH", "address": "Wilerstrasse 4", "city": "M\ufffdnchwilen", "state": null, "postcode": "9542.00", "telephone": "", "facilities": ["alcohol", "accepts_routex_cards", "automatic_site", "open_saturday", "open_sunday"], "products": [], "website": null, "watchlist_id": null, "formatted_address": "Wilerstrasse 4\nM\ufffdnchwilen\n9542.00", "channel_of_trade": null}, {"id": "786939784", "name": "BP Tankstelle Mosnang", "lat": 47.36497, "lng": 9.04116, "site_brand": "BP", "country_code": "CH", "address": "Unterdorfstrasse 24/26", "city": "Mosnang", "state": null, "postcode": "9607.00", "telephone": "", "facilities": ["alcohol", "accepts_routex_cards", "automatic_site", "open_saturday", "open_sunday"], "products": [], "website": null, "watchlist_id": null, "formatted_address": "Unterdorfstrasse 24/26\nMosnang\n9607.00", "channel_of_trade": null}, {"id": "1912196530", "name": "BP Service M\ufffdrstetten Frauenfe", "lat": 47.583559, "lng": 9.056616, "site_brand": "BP", "country_code": "CH", "address": "Frauenfelderstrasse 16", "city": "M\ufffdrstetten", "state": null, "postcode": "8560.00", "telephone": "", "facilities": ["alcohol", "lotto", "tobacco", "shop", "accepts_routex_cards", "open_saturday", "open_sunday"], "products": ["ad_blue_cannister", "ultimate", "ultimate_unleaded"], "website": null, "watchlist_id": null, "formatted_address": "Frauenfelderstrasse 16\nM\ufffdrstetten\n8560.00", "channel_of_trade": null}, {"id": "1039133019", "name": "BP Tankstelle Rufi", "lat": 47.1781, "lng": 9.051539, "site_brand": "BP", "country_code": "CH", "address": "Gasterstrasse Hauptstrasse", "city": "Sch\ufffdnis", "state": null, "postcode": "8723.00", "telephone": "", "facilities": ["alcohol", "accepts_routex_cards", "automatic_site", "open_saturday", "open_sunday"], "products": ["ultimate", "ultimate_unleaded"], "website": null, "watchlist_id": null, "formatted_address": "Gasterstrasse Hauptstrasse\nSch\ufffdnis\n8723.00", "channel_of_trade": null}, {"id": "3019587", "name": "BP Tankstelle Bazenheid", "lat": 47.412828, "lng": 9.068698, "site_brand": "BP", "country_code": "CH", "address": "Wilerstrasse 20", "city": "Bazenheid", "state": null, "postcode": "9602.00", "telephone": "", "facilities": ["alcohol", "accepts_routex_cards", "automatic_site", "open_saturday", "open_sunday"], "products": [], "website": null, "watchlist_id": null, "formatted_address": "Wilerstrasse 20\nBazenheid\n9602.00", "channel_of_trade": null}, {"id": "1027593035", "name": "BP Service Schwarzenbach", "lat": 47.444062, "lng": 9.068948, "site_brand": "BP", "country_code": "CH", "address": "Wilerstrasse 21", "city": "Jonschwil", "state": null, "postcode": "9243.00", "telephone": "", "facilities": ["alcohol", "lotto", "tobacco", "truck_suitable_site", "shop", "accepts_routex_cards", "open_saturday", "open_sunday"], "products": ["ad_blue_cannister", "ultimate", "ultimate_unleaded"], "website": null, "watchlist_id": null, "formatted_address": "Wilerstrasse 21\nJonschwil\n9243.00", "channel_of_trade": null}, {"id": "853360425", "name": "BP Carwash Wilerwald", "lat": 47.46411552, "lng": 9.06465138, "site_brand": "BP", "country_code": "CH", "address": "St. Gallerstrasse 75", "city": "Wil", "state": null, "postcode": "9501.00", "telephone": "", "facilities": ["alcohol", "car_wash", "accepts_routex_cards", "automatic_site", "open_saturday", "open_sunday"], "products": [], "website": null, "watchlist_id": null, "formatted_address": "St. Gallerstrasse 75\nWil\n9501.00", "channel_of_trade": null}, {"id": "537935482", "name": "BP Tankstelle Schwarzenbach", "lat": 47.444136, "lng": 9.069049, "site_brand": "BP", "country_code": "CH", "address": "Bahnhofstrasse 4", "city": "Schwarzenbach", "state": null, "postcode": "9536.00", "telephone": "", "facilities": ["alcohol", "accepts_routex_cards", "automatic_site", "open_saturday", "open_sunday"], "products": [], "website": null, "watchlist_id": null, "formatted_address": "Bahnhofstrasse 4\nSchwarzenbach\n9536.00", "channel_of_trade": null}, {"id": "1573802951", "name": "BP Tankstelle Bronschhofen", "lat": 47.481462, "lng": 9.033041, "site_brand": "BP", "country_code": "CH", "address": "Hauptstrasse 47", "city": "Bronschhofen", "state": null, "postcode": "9552.00", "telephone": "", "facilities": ["alcohol", "accepts_routex_cards", "automatic_site", "open_saturday", "open_sunday"], "products": [], "website": null, "watchlist_id": null, "formatted_address": "Hauptstrasse 47\nBronschhofen\n9552.00", "channel_of_trade": null}, {"id": "381634518", "name": "BP Service Wilerwald", "lat": 47.464253, "lng": 9.064979, "site_brand": "BP", "country_code": "CH", "address": "St. Gallerstrasse 75a", "city": "Wil", "state": null, "postcode": "9500.00", "telephone": "", "facilities": ["alcohol", "lotto", "tobacco", "shop", "accepts_routex_cards", "open_saturday", "open_sunday"], "products": ["ad_blue_cannister", "ultimate", "ultimate_diesel", "ultimate_unleaded"], "website": null, "watchlist_id": null, "formatted_address": "St. Gallerstrasse 75a\nWil\n9500.00", "channel_of_trade": null}, {"id": "1128248172", "name": "BP Service Wil Churfirstenstra", "lat": 47.457854, "lng": 9.046187, "site_brand": "BP", "country_code": "CH", "address": "Churfirstenstrasse 40", "city": "Wil", "state": null, "postcode": "9500.00", "telephone": "", "facilities": ["alcohol", "accepts_routex_cards", "open_saturday", "open_sunday"], "products": ["ad_blue_pump", "natural_gas", "ultimate", "ultimate_unleaded", "ad_blue"], "website": null, "watchlist_id": null, "formatted_address": "Churfirstenstrasse 40\nWil\n9500.00", "channel_of_trade": null}, {"id": "50202401", "name": "BP Tankstelle Z\ufffdrich Hofwiesen", "lat": 47.406707, "lng": 8.538283, "site_brand": "BP", "country_code": "CH", "address": "Hofwiesenstrasse 268", "city": "Z\ufffdrich", "state": null, "postcode": "8050.00", "telephone": "", "facilities": ["alcohol", "accepts_routex_cards", "automatic_site", "open_saturday", "open_sunday"], "products": [], "website": null, "watchlist_id": "50202401", "formatted_address": "Hofwiesenstrasse 268\nZ\ufffdrich\n8050.00", "channel_of_trade": null}, {"id": "507756150", "name": "BP Service Appenzell", "lat": 47.334382, "lng": 9.403964, "site_brand": "BP", "country_code": "CH", "address": "Feldstrasse", "city": "Appenzell", "state": null, "postcode": "9050.00", "telephone": "", "facilities": ["alcohol", "lotto", "tobacco", "car_wash", "shop", "accepts_routex_cards", "open_saturday", "open_sunday"], "products": ["ad_blue_cannister"], "website": null, "watchlist_id": null, "formatted_address": "Feldstrasse\nAppenzell\n9050.00", "channel_of_trade": null}, {"id": "222555699", "name": "BP Tankstelle Wildhaus", "lat": 47.19877, "lng": 9.37007, "site_brand": "BP", "country_code": "CH", "address": "S\ufffdgeboden 560", "city": "Wildhaus", "state": null, "postcode": "9658.00", "telephone": "", "facilities": ["alcohol", "accepts_routex_cards", "automatic_site", "open_saturday", "open_sunday"], "products": [], "website": null, "watchlist_id": null, "formatted_address": "S\ufffdgeboden 560\nWildhaus\n9658.00", "channel_of_trade": null}, {"id": "1929832890", "name": "BP Service Arbon", "lat": 47.504189, "lng": 9.426929, "site_brand": "BP", "country_code": "CH", "address": "Landquartstrasse 91", "city": "Arbon", "state": null, "postcode": "9320.00", "telephone": "+41 76 375 99 46", "facilities": ["alcohol", "lotto", "tobacco", "truck_suitable_site", "shop", "accepts_routex_cards", "open_saturday", "open_sunday"], "products": ["ad_blue_cannister", "ultimate", "ultimate_unleaded"], "website": null, "watchlist_id": null, "formatted_address": "Landquartstrasse 91\nArbon\n9320.00", "channel_of_trade": null}, {"id": "1864818220", "name": "BP Service Heiligkreuz", "lat": 47.442786, "lng": 9.395078, "site_brand": "BP", "country_code": "CH", "address": "Langstrasse 124", "city": "Sankt Gallen", "state": null, "postcode": "9008.00", "telephone": "", "facilities": ["alcohol", "lotto", "tobacco", "shop", "accepts_routex_cards", "open_saturday", "open_sunday"], "products": ["ad_blue_cannister", "ultimate", "ultimate_unleaded"], "website": null, "watchlist_id": null, "formatted_address": "Langstrasse 124\nSankt Gallen\n9008.00", "channel_of_trade": null}, {"id": "1881255983", "name": "BP Service Neudorf", "lat": 47.44018, "lng": 9.40996, "site_brand": "BP", "country_code": "CH", "address": "Rorschacherstrasse 271", "city": "Sankt Gallen", "state": null, "postcode": "9016.00", "telephone": "+41 76 595 23 46", "facilities": ["alcohol", "lotto", "tobacco", "car_wash", "truck_suitable_site", "shop", "accepts_routex_cards", "open_saturday", "open_sunday"], "products": ["ad_blue_cannister", "natural_gas", "ultimate", "ultimate_diesel", "ultimate_unleaded"], "website": null, "watchlist_id": null, "formatted_address": "Rorschacherstrasse 271\nSankt Gallen\n9016.00", "channel_of_trade": null}, {"id": "253750959", "name": "BP Tankstelle Hinwil", "lat": 47.29925, "lng": 8.83736, "site_brand": "BP", "country_code": "CH", "address": "Gossauerstrasse 14", "city": "Hinwil", "state": null, "postcode": "8340.00", "telephone": "+41 79 947 17 75", "facilities": ["alcohol", "accepts_routex_cards", "automatic_site", "open_saturday", "open_sunday"], "products": [], "website": null, "watchlist_id": null, "formatted_address": "Gossauerstrasse 14\nHinwil\n8340.00", "channel_of_trade": null}, {"id": "1313988207", "name": "BP Tankstelle Hittnau", "lat": 47.36853, "lng": 8.82204, "site_brand": "BP", "country_code": "CH", "address": "Isikerstrasse 2", "city": "Hittnau", "state": null, "postcode": "8335.00", "telephone": "", "facilities": ["alcohol", "accepts_routex_cards", "automatic_site", "open_saturday", "open_sunday"], "products": ["ultimate", "ultimate_unleaded"], "website": null, "watchlist_id": null, "formatted_address": "Isikerstrasse 2\nHittnau\n8335.00", "channel_of_trade": null}, {"id": "1355878205", "name": "BP Tankstelle R\ufffdti", "lat": 47.26297, "lng": 8.86601, "site_brand": "BP", "country_code": "CH", "address": "Walderstrasse 74", "city": "R\ufffdti", "state": null, "postcode": "8630.00", "telephone": "", "facilities": ["alcohol", "accepts_routex_cards", "automatic_site", "open_saturday", "open_sunday"], "products": [], "website": null, "watchlist_id": null, "formatted_address": "Walderstrasse 74\nR\ufffdti\n8630.00", "channel_of_trade": null}, {"id": "49520826", "name": "BP Service Pf\ufffdffikon SZ", "lat": 47.20207703, "lng": 8.79019297, "site_brand": "BP", "country_code": "CH", "address": "Churerstrasse 134", "city": "Pf\ufffdffikon SZ", "state": null, "postcode": "8808.00", "telephone": "", "facilities": ["alcohol", "lotto", "tobacco", "shop", "accepts_routex_cards", "open_saturday", "open_sunday"], "products": ["ad_blue_cannister", "ultimate", "ultimate_unleaded"], "website": null, "watchlist_id": "49520826", "formatted_address": "Churerstrasse 134\nPf\ufffdffikon SZ\n8808.00", "channel_of_trade": null}, {"id": "317108158", "name": "BP Tankstelle Saland", "lat": 47.39049, "lng": 8.85399, "site_brand": "BP", "country_code": "CH", "address": "T\ufffdsstalstrasse 111", "city": "Saland", "state": null, "postcode": "8493.00", "telephone": "", "facilities": ["alcohol", "accepts_routex_cards", "automatic_site", "open_saturday", "open_sunday"], "products": ["ultimate", "ultimate_unleaded"], "website": null, "watchlist_id": null, "formatted_address": "T\ufffdsstalstrasse 111\nSaland\n8493.00", "channel_of_trade": null}, {"id": "2083003864", "name": "BP Tankstelle Tann", "lat": 47.26998, "lng": 8.85274, "site_brand": "BP", "country_code": "CH", "address": "Hauptstrasse 61", "city": "Tann", "state": null, "postcode": "8632.00", "telephone": "", "facilities": ["alcohol", "accepts_routex_cards", "automatic_site", "open_saturday", "open_sunday"], "products": ["ultimate", "ultimate_unleaded"], "website": null, "watchlist_id": null, "formatted_address": "Hauptstrasse 61\nTann\n8632.00", "channel_of_trade": null}, {"id": "648039872", "name": "BP Service Jona", "lat": 47.22609, "lng": 8.8621, "site_brand": "BP", "country_code": "CH", "address": "St. Dionys 9", "city": "Jona", "state": null, "postcode": "8645.00", "telephone": "+41 55 511 05 24", "facilities": ["alcohol", "lotto", "tobacco", "car_wash", "truck_suitable_site", "shop", "accepts_routex_cards", "open_saturday", "open_sunday"], "products": ["ad_blue_cannister", "ultimate", "ultimate_diesel", "ultimate_unleaded"], "website": null, "watchlist_id": null, "formatted_address": "St. Dionys 9\nJona\n8645.00", "channel_of_trade": null}, {"id": "64470824", "name": "BP Service Kemptthal S\ufffdd", "lat": 47.45024, "lng": 8.70188, "site_brand": "BP", "country_code": "CH", "address": "Rastplatz Kemptthal 2", "city": "Kemptthal", "state": null, "postcode": "8310.00", "telephone": "+41 76 812 44 28", "facilities": ["alcohol", "lotto", "tobacco", "truck_suitable_site", "motorway_site", "shop", "accepts_routex_cards", "open_saturday", "open_sunday"], "products": ["ad_blue_cannister", "ultimate", "ultimate_diesel", "ultimate_unleaded"], "website": null, "watchlist_id": "64470824", "formatted_address": "Rastplatz Kemptthal 2\nKemptthal\n8310.00", "channel_of_trade": null}, {"id": "16381795", "name": "BP Service Pf\ufffdffikon", "lat": 47.369, "lng": 8.77913, "site_brand": "BP", "country_code": "CH", "address": "Kempttalstrasse 54", "city": "Pf\ufffdffikon", "state": null, "postcode": "8330.00", "telephone": "+41 44 500 23 81", "facilities": ["alcohol", "lotto", "tobacco", "shop", "accepts_routex_cards", "open_saturday", "open_sunday"], "products": ["ad_blue_cannister", "ultimate", "ultimate_unleaded"], "website": null, "watchlist_id": "16381795", "formatted_address": "Kempttalstrasse 54\nPf\ufffdffikon\n8330.00", "channel_of_trade": null}, {"id": "1660399115", "name": "BP Service Wettingen", "lat": 47.462707, "lng": 8.33308, "site_brand": "BP", "country_code": "CH", "address": "Landstrasse 148", "city": "Wettingen", "state": null, "postcode": "5430", "telephone": "+41 56 426 33 62", "facilities": ["toilet", "shop", "wild_bean_cafe", "accepts_routex_cards", "accepts_toll_payments", "open_saturday", "open_sunday"], "products": ["ad_blue_cannister", "ad_blue_pump", "diesel_on", "ultimate", "ultimate_diesel", "ultimate_unleaded", "unleaded_95", "ad_blue"], "website": null, "watchlist_id": null, "formatted_address": "Landstrasse 148\nWettingen\n5430", "channel_of_trade": null}, {"id": "1067605184", "name": "BP Tankstelle Beinwil am See", "lat": 47.26907, "lng": 8.20258, "site_brand": "BP", "country_code": "CH", "address": "Aarauerstrasse 46", "city": "Beinwil am See", "state": null, "postcode": "5712.00", "telephone": "", "facilities": ["alcohol", "accepts_routex_cards", "automatic_site", "open_saturday", "open_sunday"], "products": ["ultimate", "ultimate_unleaded"], "website": null, "watchlist_id": null, "formatted_address": "Aarauerstrasse 46\nBeinwil am See\n5712.00", "channel_of_trade": null}, {"id": "535365227", "name": "BP Service Sins", "lat": 47.187067, "lng": 8.396604, "site_brand": "BP", "country_code": "CH", "address": "Luzernerstrasse 27", "city": "Sins", "state": null, "postcode": "5643.00", "telephone": "", "facilities": ["alcohol", "lotto", "tobacco", "shop", "accepts_routex_cards", "open_saturday", "open_sunday"], "products": ["ad_blue_cannister", "ultimate", "ultimate_unleaded"], "website": null, "watchlist_id": null, "formatted_address": "Luzernerstrasse 27\nSins\n5643.00", "channel_of_trade": null}, {"id": "750928537", "name": "BP Tankstelle Engelburg", "lat": 47.43091, "lng": 9.34704, "site_brand": "BP", "country_code": "CH", "address": "St. Gallerstrasse 122", "city": "Gaiserwald", "state": null, "postcode": "9030.00", "telephone": "", "facilities": ["alcohol", "accepts_routex_cards", "automatic_site", "open_saturday", "open_sunday"], "products": [], "website": null, "watchlist_id": null, "formatted_address": "St. Gallerstrasse 122\nGaiserwald\n9030.00", "channel_of_trade": null}, {"id": "509021995", "name": "BP Tankstelle Arnegg", "lat": 47.44097, "lng": 9.25479, "site_brand": "BP", "country_code": "CH", "address": "Bischofszellerstrasse 315", "city": "Arnegg", "state": null, "postcode": "9212.00", "telephone": "", "facilities": ["alcohol", "accepts_routex_cards", "automatic_site", "open_saturday", "open_sunday"], "products": [], "website": null, "watchlist_id": null, "formatted_address": "Bischofszellerstrasse 315\nArnegg\n9212.00", "channel_of_trade": null}, {"id": "1313665595", "name": "BP Service Herisau", "lat": 47.3894, "lng": 9.28961, "site_brand": "BP", "country_code": "CH", "address": "Kasernenstrasse 68", "city": "Herisau", "state": null, "postcode": "9100.00", "telephone": "", "facilities": ["alcohol", "lotto", "tobacco", "truck_suitable_site", "shop", "accepts_routex_cards", "open_saturday", "open_sunday"], "products": ["ad_blue_cannister", "ultimate", "ultimate_unleaded"], "website": null, "watchlist_id": null, "formatted_address": "Kasernenstrasse 68\nHerisau\n9100.00", "channel_of_trade": null}, {"id": "802232426", "name": "BP Tankstelle Degersheim", "lat": 47.37531, "lng": 9.20279, "site_brand": "BP", "country_code": "CH", "address": "M\ufffdhlefeldstrasse 23", "city": "Degersheim", "state": null, "postcode": "9113.00", "telephone": "", "facilities": ["alcohol", "accepts_routex_cards", "automatic_site", "open_saturday", "open_sunday"], "products": ["ultimate", "ultimate_unleaded"], "website": null, "watchlist_id": null, "formatted_address": "M\ufffdhlefeldstrasse 23\nDegersheim\n9113.00", "channel_of_trade": null}, {"id": "1357038191", "name": "BP Tankstelle Niederb\ufffdren", "lat": 47.46872, "lng": 9.20605, "site_brand": "BP", "country_code": "CH", "address": "Staatstrasse 57", "city": "Niederb\ufffdren", "state": null, "postcode": "9246.00", "telephone": "", "facilities": ["alcohol", "accepts_routex_cards", "automatic_site", "open_saturday", "open_sunday"], "products": ["ultimate", "ultimate_unleaded"], "website": null, "watchlist_id": null, "formatted_address": "Staatstrasse 57\nNiederb\ufffdren\n9246.00", "channel_of_trade": null}, {"id": "1642999617", "name": "BP Service St. Gallen West", "lat": 47.40733, "lng": 9.30264, "site_brand": "BP", "country_code": "CH", "address": "Z\ufffdrcherstrasse 475", "city": "Sankt Gallen", "state": null, "postcode": "9015.00", "telephone": "", "facilities": ["alcohol", "lotto", "tobacco", "shop", "accepts_routex_cards", "open_saturday", "open_sunday"], "products": ["ad_blue_cannister", "natural_gas", "ultimate", "ultimate_diesel", "ultimate_unleaded"], "website": null, "watchlist_id": null, "formatted_address": "Z\ufffdrcherstrasse 475\nSankt Gallen\n9015.00", "channel_of_trade": null}, {"id": "537790272", "name": "BP Tankstelle Gebenstorf", "lat": 47.48407, "lng": 8.24221, "site_brand": "BP", "country_code": "CH", "address": "Landstrasse 53", "city": "Gebenstorf", "state": null, "postcode": "5412.00", "telephone": "", "facilities": ["alcohol", "accepts_routex_cards", "automatic_site", "open_saturday", "open_sunday"], "products": ["ultimate", "ultimate_diesel", "ultimate_unleaded"], "website": null, "watchlist_id": null, "formatted_address": "Landstrasse 53\nGebenstorf\n5412.00", "channel_of_trade": null}, {"id": "790759557", "name": "BP Tankstelle Kleind\ufffdttingen", "lat": 47.5771539, "lng": 8.22690152, "site_brand": "BP", "country_code": "CH", "address": "Hauptstrasse 253", "city": "Kleind\ufffdttingen", "state": null, "postcode": "5314.00", "telephone": "", "facilities": ["alcohol", "accepts_routex_cards", "automatic_site", "open_saturday", "open_sunday"], "products": [], "website": null, "watchlist_id": null, "formatted_address": "Hauptstrasse 253\nKleind\ufffdttingen\n5314.00", "channel_of_trade": null}, {"id": "1496310500", "name": "BP Tankstelle Niederuzwil", "lat": 47.44639, "lng": 9.13876, "site_brand": "BP", "country_code": "CH", "address": "Bankstrasse 7b", "city": "Niederuzwil", "state": null, "postcode": "9244.00", "telephone": "", "facilities": ["alcohol", "accepts_routex_cards", "automatic_site", "open_saturday", "open_sunday"], "products": [], "website": null, "watchlist_id": null, "formatted_address": "Bankstrasse 7b\nNiederuzwil\n9244.00", "channel_of_trade": null}, {"id": "841393057", "name": "BP Tankstelle Flawil", "lat": 47.41718, "lng": 9.16847, "site_brand": "BP", "country_code": "CH", "address": "Wilerstrasse 247 / 249", "city": "Flawil", "state": null, "postcode": "9230.00", "telephone": "", "facilities": ["alcohol", "accepts_routex_cards", "automatic_site", "open_saturday", "open_sunday"], "products": ["ultimate", "ultimate_unleaded"], "website": null, "watchlist_id": null, "formatted_address": "Wilerstrasse 247 / 249\nFlawil\n9230.00", "channel_of_trade": null}, {"id": "1089212023", "name": "BP Service Oberb\ufffdren", "lat": 47.451464, "lng": 9.155443, "site_brand": "BP", "country_code": "CH", "address": "Westumfahrung 16", "city": "Oberb\ufffdren", "state": null, "postcode": "9245.00", "telephone": "+41 58 510 22 53", "facilities": ["alcohol", "lotto", "tobacco", "shop", "accepts_routex_cards", "open_saturday", "open_sunday"], "products": ["ad_blue_cannister", "natural_gas", "ultimate", "ultimate_unleaded"], "website": null, "watchlist_id": null, "formatted_address": "Westumfahrung 16\nOberb\ufffdren\n9245.00", "channel_of_trade": null}, {"id": "217047539", "name": "BP Service Gossau St. Gallerst", "lat": 47.41367, "lng": 9.27098, "site_brand": "BP", "country_code": "CH", "address": "St. Gallerstrasse 241", "city": "Gossau", "state": null, "postcode": "9200.00", "telephone": "", "facilities": ["alcohol", "lotto", "tobacco", "shop", "accepts_routex_cards", "open_saturday", "open_sunday"], "products": ["ad_blue_cannister", "ultimate", "ultimate_unleaded"], "website": null, "watchlist_id": null, "formatted_address": "St. Gallerstrasse 241\nGossau\n9200.00", "channel_of_trade": null}, {"id": "1745287333", "name": "BP Tankstelle Bischofszell", "lat": 47.49785, "lng": 9.24131, "site_brand": "BP", "country_code": "CH", "address": "Amriswilerstrasse 4", "city": "Bischofszell", "state": null, "postcode": "9220.00", "telephone": "", "facilities": ["alcohol", "accepts_routex_cards", "automatic_site", "open_saturday", "open_sunday"], "products": ["ultimate", "ultimate_unleaded"], "website": null, "watchlist_id": null, "formatted_address": "Amriswilerstrasse 4\nBischofszell\n9220.00", "channel_of_trade": null}, {"id": "166705513", "name": "BP Tankstelle Alt St. Johann", "lat": 47.19091, "lng": 9.27234, "site_brand": "BP", "country_code": "CH", "address": "Hauptstrasse 6", "city": "Alt Sankt Johann", "state": null, "postcode": "9656.00", "telephone": "", "facilities": ["alcohol", "accepts_routex_cards", "automatic_site", "open_saturday", "open_sunday"], "products": [], "website": null, "watchlist_id": null, "formatted_address": "Hauptstrasse 6\nAlt Sankt Johann\n9656.00", "channel_of_trade": null}, {"id": "807933860", "name": "BP Tankstelle Gossau Wilerstra", "lat": 47.416935, "lng": 9.237857, "site_brand": "BP", "country_code": "CH", "address": "Wilerstrasse 53", "city": "Gossau SG", "state": null, "postcode": "9200.00", "telephone": "", "facilities": ["alcohol", "accepts_routex_cards", "automatic_site", "open_saturday", "open_sunday"], "products": [], "website": null, "watchlist_id": null, "formatted_address": "Wilerstrasse 53\nGossau SG\n9200.00", "channel_of_trade": null}, {"id": "806867009", "name": "BP Service Amriswil", "lat": 47.544554, "lng": 9.284067, "site_brand": "BP", "country_code": "CH", "address": "Weinfelderstrasse 69b", "city": "Amriswil", "state": null, "postcode": "8580.00", "telephone": "", "facilities": ["alcohol", "lotto", "tobacco", "truck_suitable_site", "shop", "accepts_routex_cards", "open_saturday", "open_sunday"], "products": ["ad_blue_cannister", "ultimate", "ultimate_unleaded"], "website": null, "watchlist_id": null, "formatted_address": "Weinfelderstrasse 69b\nAmriswil\n8580.00", "channel_of_trade": null}, {"id": "420485439", "name": "BP Service Ramsen", "lat": 47.71142, "lng": 8.82216, "site_brand": "BP", "country_code": "CH", "address": "Hauptstrasse 537", "city": "Ramsen", "state": null, "postcode": "8262.00", "telephone": "", "facilities": ["alcohol", "lotto", "tobacco", "truck_suitable_site", "shop", "accepts_routex_cards", "open_saturday", "open_sunday"], "products": ["ad_blue_cannister"], "website": null, "watchlist_id": null, "formatted_address": "Hauptstrasse 537\nRamsen\n8262.00", "channel_of_trade": null}, {"id": "666063781", "name": "BP Tankstelle Winterthur", "lat": 47.4967, "lng": 8.73182, "site_brand": "BP", "country_code": "CH", "address": "Zeughausstrasse 74", "city": "Winterthur", "state": null, "postcode": "8400.00", "telephone": "", "facilities": ["alcohol", "accepts_routex_cards", "automatic_site", "open_saturday", "open_sunday"], "products": [], "website": null, "watchlist_id": null, "formatted_address": "Zeughausstrasse 74\nWinterthur\n8400.00", "channel_of_trade": null}, {"id": "672259140", "name": "BP Tankstelle Seuzach", "lat": 47.5236, "lng": 8.71532, "site_brand": "BP", "country_code": "CH", "address": "Schaffhauserstrasse 1", "city": "Seuzach", "state": null, "postcode": "8472.00", "telephone": "", "facilities": ["alcohol", "accepts_routex_cards", "automatic_site", "open_saturday", "open_sunday"], "products": [], "website": null, "watchlist_id": null, "formatted_address": "Schaffhauserstrasse 1\nSeuzach\n8472.00", "channel_of_trade": null}, {"id": "1648147495", "name": "BP Tankstelle Frauenfeld", "lat": 47.56284, "lng": 8.88088, "site_brand": "BP", "country_code": "CH", "address": "Schaffhauserstrasse 50", "city": "Frauenfeld", "state": null, "postcode": "8502.00", "telephone": "", "facilities": ["alcohol", "accepts_routex_cards", "automatic_site", "open_saturday", "open_sunday"], "products": [], "website": null, "watchlist_id": null, "formatted_address": "Schaffhauserstrasse 50\nFrauenfeld\n8502.00", "channel_of_trade": null}, {"id": "1933703225", "name": "BP Service Winterthur Frauenfe", "lat": 47.51108, "lng": 8.76049, "site_brand": "BP", "country_code": "CH", "address": "Frauenfelderstrasse 9", "city": "Winterthur", "state": null, "postcode": "8404.00", "telephone": "", "facilities": ["open_24_hours", "alcohol", "lotto", "tobacco", "shop", "accepts_routex_cards", "open_saturday", "open_sunday"], "products": ["ad_blue_cannister", "ad_blue_pump", "ultimate", "ultimate_diesel", "ultimate_unleaded", "ad_blue"], "website": null, "watchlist_id": null, "formatted_address": "Frauenfelderstrasse 9\nWinterthur\n8404.00", "channel_of_trade": null}, {"id": "487710570", "name": "BP Service Frauenfeld", "lat": 47.563764, "lng": 8.87529, "site_brand": "BP", "country_code": "CH", "address": "Schaffhauserstrasse 74", "city": "Frauenfeld", "state": null, "postcode": "8500.00", "telephone": "", "facilities": ["alcohol", "lotto", "tobacco", "truck_suitable_site", "shop", "accepts_routex_cards", "open_saturday", "open_sunday"], "products": ["ad_blue_cannister", "natural_gas", "ultimate", "ultimate_unleaded"], "website": null, "watchlist_id": null, "formatted_address": "Schaffhauserstrasse 74\nFrauenfeld\n8500.00", "channel_of_trade": null}, {"id": "1829560462", "name": "BP Tankstelle B\ufffdlach Kernstras", "lat": 47.52486, "lng": 8.53914, "site_brand": "BP", "country_code": "CH", "address": "Kernstrasse 6", "city": "B\ufffdlach", "state": null, "postcode": "8180.00", "telephone": "", "facilities": ["alcohol", "accepts_routex_cards", "automatic_site", "open_saturday", "open_sunday"], "products": [], "website": null, "watchlist_id": null, "formatted_address": "Kernstrasse 6\nB\ufffdlach\n8180.00", "channel_of_trade": null}, {"id": "36510790", "name": "BP Service Feuerthalen", "lat": 47.69119, "lng": 8.64705, "site_brand": "BP", "country_code": "CH", "address": "Diessenhoferstrasse 28", "city": "Feuerthalen", "state": null, "postcode": "8245.00", "telephone": "+41 44 500 64 06", "facilities": ["alcohol", "lotto", "tobacco", "car_wash", "truck_suitable_site", "shop", "accepts_routex_cards", "open_saturday", "open_sunday"], "products": ["ad_blue_cannister", "ultimate", "ultimate_diesel", "ultimate_unleaded"], "website": null, "watchlist_id": "36510790", "formatted_address": "Diessenhoferstrasse 28\nFeuerthalen\n8245.00", "channel_of_trade": null}]