[{"id": "3EF001", "name": "REWE", "lat": 48.74009, "lng": 11.43505, "site_brand": "Aral pulse Ladestation", "country_code": "DE", "address": "Fauststra\u00dfe 3", "city": "Ingolstadt", "state": null, "postcode": "85051", "telephone": "", "facilities": ["open_24_hours", "electric_charging", "open_saturday", "open_sunday"], "products": ["electric_charging"], "website": "http://tankstelle.aral.de/tankstelle/3EF001", "watchlist_id": null, "formatted_address": "Fauststra\u00dfe 3\nIngolstadt\n85051", "channel_of_trade": "EVDE"}, {"id": "3EF002", "name": "REWE", "lat": 50.0538496, "lng": 8.30040157, "site_brand": "Aral pulse Ladestation", "country_code": "DE", "address": "Berliner Str. 277-279", "city": "Wiesbaden", "state": null, "postcode": "65205", "telephone": "", "facilities": ["open_24_hours", "electric_charging", "open_saturday", "open_sunday"], "products": ["electric_charging"], "website": "http://tankstelle.aral.de/tankstelle/3EF002", "watchlist_id": null, "formatted_address": "Berliner Str. 277-279\nWiesbaden\n65205", "channel_of_trade": "EVDE"}, {"id": "3EF003", "name": "BK", "lat": 51.5107507, "lng": 11.5774894, "site_brand": "Aral pulse Ladestation", "country_code": "DE", "address": "Am Helftaer Anger 5", "city": "Lutherstadt-Eisleben", "state": null, "postcode": "06295", "telephone": "", "facilities": ["open_24_hours", "electric_charging", "open_saturday", "open_sunday"], "products": ["electric_charging"], "website": "http://tankstelle.aral.de/tankstelle/3EF003", "watchlist_id": null, "formatted_address": "Am Helftaer Anger 5\nLutherstadt-Eisleben\n06295", "channel_of_trade": "EVDE"}, {"id": "3EF006", "name": "BK", "lat": 54.081498, "lng": 13.42922, "site_brand": "Aral pulse Ladestation", "country_code": "DE", "address": "Koitenh\u00e4ger Landstra\u00dfe 20", "city": "Greifswald", "state": null, "postcode": "17491", "telephone": "", "facilities": ["open_24_hours", "electric_charging", "open_saturday", "open_sunday"], "products": ["electric_charging"], "website": "http://tankstelle.aral.de/tankstelle/3EF006", "watchlist_id": null, "formatted_address": "Koitenh\u00e4ger Landstra\u00dfe 20\nGreifswald\n17491", "channel_of_trade": "EVDE"}, {"id": "3EF008", "name": "BK", "lat": 53.5706, "lng": 9.872, "site_brand": "Aral pulse Ladestation", "country_code": "DE", "address": "Osdorfer Landstra\u00dfe 25", "city": "Hamburg", "state": null, "postcode": "22607", "telephone": "", "facilities": ["open_24_hours", "electric_charging", "open_saturday", "open_sunday"], "products": ["electric_charging"], "website": "http://tankstelle.aral.de/tankstelle/3EF008", "watchlist_id": null, "formatted_address": "Osdorfer Landstra\u00dfe 25\nHamburg\n22607", "channel_of_trade": "EVDE"}, {"id": "3EF012", "name": "BK", "lat": 53.470888, "lng": 7.467794, "site_brand": "Aral pulse Ladestation", "country_code": "DE", "address": "Emderstr. 19", "city": "Aurich", "state": null, "postcode": "26603", "telephone": "", "facilities": ["open_24_hours", "electric_charging", "open_saturday", "open_sunday"], "products": ["electric_charging"], "website": "http://tankstelle.aral.de/tankstelle/3EF012", "watchlist_id": null, "formatted_address": "Emderstr. 19\nAurich\n26603", "channel_of_trade": "EVDE"}, {"id": "3EF014", "name": "BK", "lat": 52.997109, "lng": 9.92115, "site_brand": "Aral pulse Ladestation", "country_code": "DE", "address": "Gottlieb-Daimler-Stra\u00dfe 2a", "city": "Soltau", "state": null, "postcode": "29614", "telephone": "", "facilities": ["open_24_hours", "electric_charging", "open_saturday", "open_sunday"], "products": ["electric_charging"], "website": "http://tankstelle.aral.de/tankstelle/3EF014", "watchlist_id": null, "formatted_address": "Gottlieb-Daimler-Stra\u00dfe 2a\nSoltau\n29614", "channel_of_trade": "EVDE"}, {"id": "3EF015", "name": "BK", "lat": 52.405452, "lng": 9.73542, "site_brand": "Aral pulse Ladestation", "country_code": "DE", "address": "Vahrenwalder Str. 194", "city": "Hannover", "state": null, "postcode": "30165", "telephone": "", "facilities": ["open_24_hours", "electric_charging", "open_saturday", "open_sunday"], "products": ["electric_charging"], "website": "http://tankstelle.aral.de/tankstelle/3EF015", "watchlist_id": null, "formatted_address": "Vahrenwalder Str. 194\nHannover\n30165", "channel_of_trade": "EVDE"}, {"id": "3EF016", "name": "BK", "lat": 50.852132, "lng": 9.726095, "site_brand": "Aral pulse Ladestation", "country_code": "DE", "address": "Rudolf-Diesel-Str. 2", "city": "Bad Hersfeld", "state": null, "postcode": "36251", "telephone": "", "facilities": ["open_24_hours", "electric_charging", "open_saturday", "open_sunday"], "products": ["electric_charging"], "website": "http://tankstelle.aral.de/tankstelle/3EF016", "watchlist_id": null, "formatted_address": "Rudolf-Diesel-Str. 2\nBad Hersfeld\n36251", "channel_of_trade": "EVDE"}, {"id": "3EF017", "name": "BK", "lat": 52.3108343, "lng": 10.6349426, "site_brand": "Aral pulse Ladestation", "country_code": "DE", "address": "In den Lohbalken 1", "city": "Lehre", "state": null, "postcode": "38165", "telephone": "", "facilities": ["open_24_hours", "electric_charging", "open_saturday", "open_sunday"], "products": ["electric_charging"], "website": "http://tankstelle.aral.de/tankstelle/3EF017", "watchlist_id": null, "formatted_address": "In den Lohbalken 1\nLehre\n38165", "channel_of_trade": "EVDE"}, {"id": "3EF024", "name": "BK", "lat": 47.764225, "lng": 12.904055, "site_brand": "Aral pulse Ladestation", "country_code": "DE", "address": "Lattenbergstra\u00dfe 13", "city": "Piding", "state": null, "postcode": "83451", "telephone": "", "facilities": ["open_24_hours", "electric_charging", "open_saturday", "open_sunday"], "products": ["electric_charging"], "website": "http://tankstelle.aral.de/tankstelle/3EF024", "watchlist_id": null, "formatted_address": "Lattenbergstra\u00dfe 13\nPiding\n83451", "channel_of_trade": "EVDE"}, {"id": "3EF025", "name": "BK", "lat": 47.626873, "lng": 13.000721, "site_brand": "Aral pulse Ladestation", "country_code": "DE", "address": "Bahnhofsplatz 4.", "city": "Berchtesgaden", "state": null, "postcode": "83471", "telephone": "", "facilities": ["open_24_hours", "electric_charging", "open_saturday", "open_sunday"], "products": ["electric_charging"], "website": "http://tankstelle.aral.de/tankstelle/3EF025", "watchlist_id": null, "formatted_address": "Bahnhofsplatz 4.\nBerchtesgaden\n83471", "channel_of_trade": "EVDE"}, {"id": "3EF026", "name": "BK", "lat": 52.950102, "lng": 9.234196, "site_brand": "Aral pulse Ladestation", "country_code": "DE", "address": "Achimer Stra\u00dfe 4-4b", "city": "Verden a.d. Aller", "state": null, "postcode": "27283", "telephone": "", "facilities": ["open_24_hours", "electric_charging", "open_saturday", "open_sunday"], "products": ["electric_charging"], "website": "http://tankstelle.aral.de/tankstelle/3EF026", "watchlist_id": null, "formatted_address": "Achimer Stra\u00dfe 4-4b\nVerden a.d. Aller\n27283", "channel_of_trade": "EVDE"}, {"id": "3EF027", "name": "BK", "lat": 52.442267, "lng": 9.722458, "site_brand": "Aral pulse Ladestation", "country_code": "DE", "address": "Westfalenstra\u00dfe 48", "city": "Langenhagen", "state": null, "postcode": "30853", "telephone": "", "facilities": ["open_24_hours", "electric_charging", "open_saturday", "open_sunday"], "products": ["electric_charging"], "website": "http://tankstelle.aral.de/tankstelle/3EF027", "watchlist_id": null, "formatted_address": "Westfalenstra\u00dfe 48\nLangenhagen\n30853", "channel_of_trade": "EVDE"}, {"id": "3EF029", "name": "BK", "lat": 52.170471, "lng": 9.93408, "site_brand": "Aral pulse Ladestation", "country_code": "DE", "address": "Mastbergstr. 3", "city": "Hildesheim", "state": null, "postcode": "31137", "telephone": "", "facilities": ["open_24_hours", "electric_charging", "open_saturday", "open_sunday"], "products": ["electric_charging"], "website": "http://tankstelle.aral.de/tankstelle/3EF029", "watchlist_id": null, "formatted_address": "Mastbergstr. 3\nHildesheim\n31137", "channel_of_trade": "EVDE"}, {"id": "3EF033", "name": "BK", "lat": 52.482153, "lng": 7.217292, "site_brand": "Aral pulse Ladestation", "country_code": "DE", "address": "Benzstr. 5", "city": "Wietmarschen", "state": null, "postcode": "49835", "telephone": "", "facilities": ["open_24_hours", "electric_charging", "open_saturday", "open_sunday"], "products": ["electric_charging"], "website": "http://tankstelle.aral.de/tankstelle/3EF033", "watchlist_id": null, "formatted_address": "Benzstr. 5\nWietmarschen\n49835", "channel_of_trade": "EVDE"}, {"id": "3EF044", "name": "BK", "lat": 50.053715, "lng": 10.195177, "site_brand": "Aral pulse Ladestation", "country_code": "DE", "address": "Willi-Kaidel-Str. 7", "city": "Schweinfurt", "state": null, "postcode": "97424", "telephone": "", "facilities": ["open_24_hours", "electric_charging", "open_saturday", "open_sunday"], "products": ["electric_charging"], "website": "http://tankstelle.aral.de/tankstelle/3EF044", "watchlist_id": null, "formatted_address": "Willi-Kaidel-Str. 7\nSchweinfurt\n97424", "channel_of_trade": "EVDE"}, {"id": "3EF045", "name": "BK", "lat": 51.638324, "lng": 6.587322, "site_brand": "Aral pulse Ladestation", "country_code": "DE", "address": "Weseler Stra\u00dfe 101", "city": "Wesel", "state": null, "postcode": "46487", "telephone": "", "facilities": ["open_24_hours", "electric_charging", "open_saturday", "open_sunday"], "products": ["electric_charging"], "website": "http://tankstelle.aral.de/tankstelle/3EF045", "watchlist_id": null, "formatted_address": "Weseler Stra\u00dfe 101\nWesel\n46487", "channel_of_trade": "EVDE"}, {"id": "3EF048", "name": "BK", "lat": 52.427795, "lng": 10.775238, "site_brand": "Aral pulse Ladestation", "country_code": "DE", "address": "Heinrich-Nordhoff-Str. 115", "city": "Wolfsburg", "state": null, "postcode": "38440", "telephone": "", "facilities": ["open_24_hours", "electric_charging", "open_saturday", "open_sunday"], "products": ["electric_charging"], "website": "http://tankstelle.aral.de/tankstelle/3EF048", "watchlist_id": null, "formatted_address": "Heinrich-Nordhoff-Str. 115\nWolfsburg\n38440", "channel_of_trade": "EVDE"}, {"id": "3EF055", "name": "BK", "lat": 51.778895, "lng": 11.747865, "site_brand": "Aral pulse Ladestation", "country_code": "DE", "address": "Hallesche Landstra\u00dfe 107", "city": "Bernburg (Saale)", "state": null, "postcode": "06406", "telephone": "", "facilities": ["open_24_hours", "electric_charging", "open_saturday", "open_sunday"], "products": ["electric_charging"], "website": "http://tankstelle.aral.de/tankstelle/3EF055", "watchlist_id": null, "formatted_address": "Hallesche Landstra\u00dfe 107\nBernburg (Saale)\n06406", "channel_of_trade": "EVDE"}, {"id": "3EF056", "name": "BK", "lat": 52.417307, "lng": 9.44828, "site_brand": "Aral pulse Ladestation", "country_code": "DE", "address": "Kolenfelder Stra\u00dfe 67b", "city": "Wunstorf", "state": null, "postcode": "31515", "telephone": "", "facilities": ["open_24_hours", "electric_charging", "open_saturday", "open_sunday"], "products": ["electric_charging"], "website": "http://tankstelle.aral.de/tankstelle/3EF056", "watchlist_id": null, "formatted_address": "Kolenfelder Stra\u00dfe 67b\nWunstorf\n31515", "channel_of_trade": "EVDE"}, {"id": "3EF057", "name": "BK", "lat": 51.452387, "lng": 12.019618, "site_brand": "Aral pulse Ladestation", "country_code": "DE", "address": "Leipziger Chaussee 181", "city": "Halle (Saale)", "state": null, "postcode": "06112", "telephone": "", "facilities": ["open_24_hours", "electric_charging", "open_saturday", "open_sunday"], "products": ["electric_charging"], "website": "http://tankstelle.aral.de/tankstelle/3EF057", "watchlist_id": null, "formatted_address": "Leipziger Chaussee 181\nHalle (Saale)\n06112", "channel_of_trade": "EVDE"}, {"id": "3EF058", "name": "BK", "lat": 51.307119, "lng": 9.447122, "site_brand": "Aral pulse Ladestation", "country_code": "DE", "address": "Druseltalstra\u00dfe 3", "city": "Kassel", "state": null, "postcode": "34131", "telephone": "", "facilities": ["open_24_hours", "electric_charging", "open_saturday", "open_sunday"], "products": ["electric_charging"], "website": "http://tankstelle.aral.de/tankstelle/3EF058", "watchlist_id": null, "formatted_address": "Druseltalstra\u00dfe 3\nKassel\n34131", "channel_of_trade": "EVDE"}, {"id": "3EF059", "name": "BK", "lat": 51.301026, "lng": 9.533369, "site_brand": "Aral pulse Ladestation", "country_code": "DE", "address": "Leipziger Stra\u00dfe 194", "city": "Kassel", "state": null, "postcode": "34123", "telephone": "", "facilities": ["open_24_hours", "electric_charging", "open_saturday", "open_sunday"], "products": ["electric_charging"], "website": "http://tankstelle.aral.de/tankstelle/3EF059", "watchlist_id": null, "formatted_address": "Leipziger Stra\u00dfe 194\nKassel\n34123", "channel_of_trade": "EVDE"}, {"id": "3EF060", "name": "BK", "lat": 53.0591271, "lng": 8.9825856, "site_brand": "Aral pulse Ladestation", "country_code": "DE", "address": "Oyterdamm 74", "city": "Oyten", "state": null, "postcode": "28876", "telephone": "", "facilities": ["open_24_hours", "electric_charging", "open_saturday", "open_sunday"], "products": ["electric_charging"], "website": "http://tankstelle.aral.de/tankstelle/3EF060", "watchlist_id": null, "formatted_address": "Oyterdamm 74\nOyten\n28876", "channel_of_trade": "EVDE"}, {"id": "3EF061", "name": "BK", "lat": 53.588057, "lng": 7.218785, "site_brand": "Aral pulse Ladestation", "country_code": "DE", "address": "Bahnhofstra\u00dfe 14b", "city": "Norden", "state": null, "postcode": "26506", "telephone": "", "facilities": ["open_24_hours", "electric_charging", "open_saturday", "open_sunday"], "products": ["electric_charging"], "website": "http://tankstelle.aral.de/tankstelle/3EF061", "watchlist_id": null, "formatted_address": "Bahnhofstra\u00dfe 14b\nNorden\n26506", "channel_of_trade": "EVDE"}, {"id": "3EF062", "name": "BK", "lat": 51.120485, "lng": 9.278325, "site_brand": "Aral pulse Ladestation", "country_code": "DE", "address": "Gie\u00dfener Stra\u00dfe 83", "city": "Fritzlar", "state": null, "postcode": "34560", "telephone": "", "facilities": ["open_24_hours", "electric_charging", "open_saturday", "open_sunday"], "products": ["electric_charging"], "website": "http://tankstelle.aral.de/tankstelle/3EF062", "watchlist_id": null, "formatted_address": "Gie\u00dfener Stra\u00dfe 83\nFritzlar\n34560", "channel_of_trade": "EVDE"}, {"id": "3EF063", "name": "BK", "lat": 50.823885, "lng": 8.944498, "site_brand": "Aral pulse Ladestation", "country_code": "DE", "address": "Sonnenallee 3", "city": "Kirchhain", "state": null, "postcode": "35274", "telephone": "", "facilities": ["open_24_hours", "electric_charging", "open_saturday", "open_sunday"], "products": ["electric_charging"], "website": "http://tankstelle.aral.de/tankstelle/3EF063", "watchlist_id": null, "formatted_address": "Sonnenallee 3\nKirchhain\n35274", "channel_of_trade": "EVDE"}, {"id": "3EF064", "name": "BK", "lat": 49.259754, "lng": 11.458457, "site_brand": "Aral pulse Ladestation", "country_code": "DE", "address": "Oberes Moos 1", "city": "Neumarkt in der Oberpfalz", "state": null, "postcode": "92318", "telephone": "", "facilities": ["open_24_hours", "electric_charging", "open_saturday", "open_sunday"], "products": ["electric_charging"], "website": "http://tankstelle.aral.de/tankstelle/3EF064", "watchlist_id": null, "formatted_address": "Oberes Moos 1\nNeumarkt in der Oberpfalz\n92318", "channel_of_trade": "EVDE"}, {"id": "3EF071", "name": "BK", "lat": 53.745358, "lng": 9.7048, "site_brand": "Aral pulse Ladestation", "country_code": "DE", "address": "Werner-von-Siemens-Str. 3", "city": "Elmshorn", "state": null, "postcode": "25337", "telephone": "", "facilities": ["open_24_hours", "electric_charging", "open_saturday", "open_sunday"], "products": ["electric_charging"], "website": "http://tankstelle.aral.de/tankstelle/3EF071", "watchlist_id": null, "formatted_address": "Werner-von-Siemens-Str. 3\nElmshorn\n25337", "channel_of_trade": "EVDE"}, {"id": "3EF077", "name": "BK", "lat": 52.462509, "lng": 10.540191, "site_brand": "Aral pulse Ladestation", "country_code": "DE", "address": "Ey\u00dfelheideweg 1", "city": "Gifhorn", "state": null, "postcode": "38518", "telephone": "", "facilities": ["open_24_hours", "electric_charging", "open_saturday", "open_sunday"], "products": ["electric_charging"], "website": "http://tankstelle.aral.de/tankstelle/3EF077", "watchlist_id": null, "formatted_address": "Ey\u00dfelheideweg 1\nGifhorn\n38518", "channel_of_trade": "EVDE"}, {"id": "3EF081", "name": "BK", "lat": 52.616963, "lng": 11.8684358, "site_brand": "Aral pulse Ladestation", "country_code": "DE", "address": "Arneburger Str. 32", "city": "Stendal", "state": null, "postcode": "39576", "telephone": "", "facilities": ["open_24_hours", "electric_charging", "open_saturday", "open_sunday"], "products": ["electric_charging"], "website": "http://tankstelle.aral.de/tankstelle/3EF081", "watchlist_id": null, "formatted_address": "Arneburger Str. 32\nStendal\n39576", "channel_of_trade": "EVDE"}, {"id": "3EF085", "name": "BK", "lat": 52.082498, "lng": 11.602765, "site_brand": "Aral pulse Ladestation", "country_code": "DE", "address": "Salbker Chaussee 67", "city": "Magdeburg", "state": null, "postcode": "39118", "telephone": "", "facilities": ["open_24_hours", "electric_charging", "open_saturday", "open_sunday"], "products": ["electric_charging"], "website": "http://tankstelle.aral.de/tankstelle/3EF085", "watchlist_id": null, "formatted_address": "Salbker Chaussee 67\nMagdeburg\n39118", "channel_of_trade": "EVDE"}, {"id": "3EF086", "name": "BK", "lat": 47.814415, "lng": 12.367572, "site_brand": "Aral pulse Ladestation", "country_code": "DE", "address": "Theodor-Sanne-Stra\u00dfe 4", "city": "Bernau am Chiemsee", "state": null, "postcode": "83233", "telephone": "", "facilities": ["open_24_hours", "electric_charging", "open_saturday", "open_sunday"], "products": ["electric_charging"], "website": "http://tankstelle.aral.de/tankstelle/3EF086", "watchlist_id": null, "formatted_address": "Theodor-Sanne-Stra\u00dfe 4\nBernau am Chiemsee\n83233", "channel_of_trade": "EVDE"}, {"id": "3EF090", "name": "BK", "lat": 52.731196, "lng": 8.264831, "site_brand": "Aral pulse Ladestation", "country_code": "DE", "address": "Osloer Str. 1", "city": "Vechta", "state": null, "postcode": "49377", "telephone": "", "facilities": ["open_24_hours", "electric_charging", "open_saturday", "open_sunday"], "products": ["electric_charging"], "website": "http://tankstelle.aral.de/tankstelle/3EF090", "watchlist_id": null, "formatted_address": "Osloer Str. 1\nVechta\n49377", "channel_of_trade": "EVDE"}, {"id": "3EF091", "name": "BK", "lat": 52.061093, "lng": 8.644089, "site_brand": "Aral pulse Ladestation", "country_code": "DE", "address": "R\u00f6ntgenstra\u00dfe 1", "city": "Herford", "state": null, "postcode": "32052", "telephone": "", "facilities": ["open_24_hours", "electric_charging", "open_saturday", "open_sunday"], "products": ["electric_charging"], "website": "http://tankstelle.aral.de/tankstelle/3EF091", "watchlist_id": null, "formatted_address": "R\u00f6ntgenstra\u00dfe 1\nHerford\n32052", "channel_of_trade": "EVDE"}, {"id": "3EF092", "name": "BK", "lat": 52.299628, "lng": 8.9103488, "site_brand": "Aral pulse Ladestation", "country_code": "DE", "address": "Ringstra\u00dfe 111", "city": "Minden", "state": null, "postcode": "32427", "telephone": "", "facilities": ["open_24_hours", "electric_charging", "open_saturday", "open_sunday"], "products": ["electric_charging"], "website": "http://tankstelle.aral.de/tankstelle/3EF092", "watchlist_id": null, "formatted_address": "Ringstra\u00dfe 111\nMinden\n32427", "channel_of_trade": "EVDE"}, {"id": "3EF093", "name": "BK", "lat": 51.510357, "lng": 10.240367, "site_brand": "Aral pulse Ladestation", "country_code": "DE", "address": "Gewerbepark Euzenberg 1", "city": "Duderstadt", "state": null, "postcode": "37115", "telephone": "", "facilities": ["open_24_hours", "electric_charging", "open_saturday", "open_sunday"], "products": ["electric_charging"], "website": "http://tankstelle.aral.de/tankstelle/3EF093", "watchlist_id": null, "formatted_address": "Gewerbepark Euzenberg 1\nDuderstadt\n37115", "channel_of_trade": "EVDE"}, {"id": "3EF111", "name": "REWE", "lat": 50.6279775, "lng": 6.94332451, "site_brand": "Aral pulse Ladestation", "country_code": "DE", "address": "An d. Alten Molkerei 3", "city": "Rheinbach", "state": null, "postcode": "53359", "telephone": "", "facilities": ["electric_charging", "open_saturday", "open_sunday"], "products": ["electric_charging"], "website": "http://tankstelle.aral.de/tankstelle/3EF111", "watchlist_id": null, "formatted_address": "An d. Alten Molkerei 3\nRheinbach\n53359", "channel_of_trade": "EVDE"}, {"id": "3EF146", "name": "REWE", "lat": 50.834682, "lng": 8.325993, "site_brand": "Aral pulse Ladestation", "country_code": "DE", "address": "Storchweg 2", "city": "Dietzh\u00f6lztal/Ewersbach", "state": null, "postcode": "35716", "telephone": "", "facilities": ["electric_charging", "open_saturday", "open_sunday"], "products": ["electric_charging"], "website": "http://tankstelle.aral.de/tankstelle/3EF146", "watchlist_id": null, "formatted_address": "Storchweg 2\nDietzh\u00f6lztal/Ewersbach\n35716", "channel_of_trade": "EVDE"}, {"id": "3EF180", "name": "REWE", "lat": 50.7682695, "lng": 8.5853443, "site_brand": "Aral pulse Ladestation", "country_code": "DE", "address": "Kirchbergstra\u00dfe 4", "city": "Gladenbach", "state": null, "postcode": "35075", "telephone": "", "facilities": ["open_24_hours", "electric_charging", "open_saturday", "open_sunday"], "products": ["electric_charging"], "website": "http://tankstelle.aral.de/tankstelle/3EF180", "watchlist_id": null, "formatted_address": "Kirchbergstra\u00dfe 4\nGladenbach\n35075", "channel_of_trade": "EVDE"}, {"id": "3EF200", "name": "REWE", "lat": 49.1468631, "lng": 8.5882966, "site_brand": "Aral pulse Ladestation", "country_code": "DE", "address": "Bruchsaler Str. 67", "city": "Forst", "state": null, "postcode": "76694", "telephone": "", "facilities": ["open_24_hours", "electric_charging", "open_saturday", "open_sunday"], "products": ["electric_charging"], "website": "http://tankstelle.aral.de/tankstelle/3EF200", "watchlist_id": null, "formatted_address": "Bruchsaler Str. 67\nForst\n76694", "channel_of_trade": "EVDE"}, {"id": "3EF207", "name": "REWE", "lat": 50.202612, "lng": 6.419239, "site_brand": "Aral pulse Ladestation", "country_code": "DE", "address": "Bahnhofstr. 63", "city": "Pr\u00fcm", "state": null, "postcode": "54595", "telephone": "", "facilities": ["electric_charging", "open_saturday", "open_sunday"], "products": ["electric_charging"], "website": "http://tankstelle.aral.de/tankstelle/3EF207", "watchlist_id": null, "formatted_address": "Bahnhofstr. 63\nPr\u00fcm\n54595", "channel_of_trade": "EVDE"}, {"id": "3EF211", "name": "REWE", "lat": 50.9043978, "lng": 8.7212283, "site_brand": "Aral pulse Ladestation", "country_code": "DE", "address": "An d. Bleiche 1", "city": "Wetter", "state": null, "postcode": "35083", "telephone": "", "facilities": ["open_24_hours", "electric_charging", "open_saturday", "open_sunday"], "products": ["electric_charging"], "website": "http://tankstelle.aral.de/tankstelle/3EF211", "watchlist_id": null, "formatted_address": "An d. Bleiche 1\nWetter\n35083", "channel_of_trade": "EVDE"}, {"id": "3EF213", "name": "REWE", "lat": 53.2869355, "lng": 10.7338946, "site_brand": "Aral pulse Ladestation", "country_code": "DE", "address": "Industriestra\u00dfe 30", "city": "Bleckede", "state": null, "postcode": "21354", "telephone": "", "facilities": ["electric_charging", "open_saturday", "open_sunday"], "products": ["electric_charging"], "website": "http://tankstelle.aral.de/tankstelle/3EF213", "watchlist_id": null, "formatted_address": "Industriestra\u00dfe 30\nBleckede\n21354", "channel_of_trade": "EVDE"}, {"id": "3EF271", "name": "REWE", "lat": 50.9802699, "lng": 6.68206942, "site_brand": "Aral pulse Ladestation", "country_code": "DE", "address": "Peter-Achnitz-Stra\u00dfe 8", "city": "Bergheim", "state": null, "postcode": "50129", "telephone": "", "facilities": ["open_24_hours", "electric_charging", "open_saturday", "open_sunday"], "products": ["electric_charging"], "website": "http://tankstelle.aral.de/tankstelle/3EF271", "watchlist_id": null, "formatted_address": "Peter-Achnitz-Stra\u00dfe 8\nBergheim\n50129", "channel_of_trade": "EVDE"}, {"id": "3EF276", "name": "REWE", "lat": 49.251826, "lng": 8.87269714, "site_brand": "Aral pulse Ladestation", "country_code": "DE", "address": "Muthstra\u00dfe 25", "city": "Sinsheim", "state": null, "postcode": "74889", "telephone": "", "facilities": ["electric_charging", "open_saturday", "open_sunday"], "products": ["electric_charging"], "website": "http://tankstelle.aral.de/tankstelle/3EF276", "watchlist_id": null, "formatted_address": "Muthstra\u00dfe 25\nSinsheim\n74889", "channel_of_trade": "EVDE"}, {"id": "3EF283", "name": "BK", "lat": 50.8607722, "lng": 10.9603327, "site_brand": "Aral pulse Ladestation", "country_code": "DE", "address": "Lindenplatz 1", "city": "Arnstadt", "state": null, "postcode": "99310", "telephone": "", "facilities": ["open_24_hours", "electric_charging", "open_saturday", "open_sunday"], "products": ["electric_charging"], "website": "http://tankstelle.aral.de/tankstelle/3EF283", "watchlist_id": null, "formatted_address": "Lindenplatz 1\nArnstadt\n99310", "channel_of_trade": "EVDE"}, {"id": "3EF284", "name": "BK", "lat": 50.0211897, "lng": 10.215882, "site_brand": "Aral pulse Ladestation", "country_code": "DE", "address": "Stra\u00dfburg Stra\u00dfe 3", "city": "Schweinfurt", "state": null, "postcode": "97424", "telephone": "", "facilities": ["open_24_hours", "electric_charging", "open_saturday", "open_sunday"], "products": ["electric_charging"], "website": "http://tankstelle.aral.de/tankstelle/3EF284", "watchlist_id": null, "formatted_address": "Stra\u00dfburg Stra\u00dfe 3\nSchweinfurt\n97424", "channel_of_trade": "EVDE"}, {"id": "3EF285", "name": "BK", "lat": 51.198597, "lng": 10.4801261, "site_brand": "Aral pulse Ladestation", "country_code": "DE", "address": "Gebr.-Franke-Str. 1", "city": "M\u00fchlhausen", "state": null, "postcode": "99974", "telephone": "", "facilities": ["open_24_hours", "electric_charging", "open_saturday", "open_sunday"], "products": ["electric_charging"], "website": "http://tankstelle.aral.de/tankstelle/3EF285", "watchlist_id": null, "formatted_address": "Gebr.-Franke-Str. 1\nM\u00fchlhausen\n99974", "channel_of_trade": "EVDE"}, {"id": "3EF286", "name": "REWE", "lat": 51.78383, "lng": 14.07757, "site_brand": "Aral pulse Ladestation", "country_code": "DE", "address": "Kleine Bahnhofstr. 1", "city": "Vetschau/Spreewald", "state": null, "postcode": "03226", "telephone": "", "facilities": ["open_24_hours", "electric_charging", "open_saturday", "open_sunday"], "products": ["electric_charging"], "website": "http://tankstelle.aral.de/tankstelle/3EF286", "watchlist_id": null, "formatted_address": "Kleine Bahnhofstr. 1\nVetschau/Spreewald\n03226", "channel_of_trade": "EVDE"}, {"id": "3EF288", "name": "BK", "lat": 52.2893961, "lng": 8.028853, "site_brand": "Aral pulse Ladestation", "country_code": "DE", "address": "Pagenstecherstra\u00dfe 50", "city": "Osnabr\u00fcck", "state": null, "postcode": "49090", "telephone": "", "facilities": ["open_24_hours", "electric_charging", "open_saturday", "open_sunday"], "products": ["electric_charging"], "website": "http://tankstelle.aral.de/tankstelle/3EF288", "watchlist_id": null, "formatted_address": "Pagenstecherstra\u00dfe 50\nOsnabr\u00fcck\n49090", "channel_of_trade": "EVDE"}, {"id": "3EF293", "name": "BK", "lat": 51.7867337, "lng": 9.3877839, "site_brand": "Aral pulse Ladestation", "country_code": "DE", "address": "Albaxer Str. 65", "city": "H\u00f6xter", "state": null, "postcode": "37671", "telephone": "", "facilities": ["open_24_hours", "electric_charging", "open_saturday", "open_sunday"], "products": ["electric_charging"], "website": "http://tankstelle.aral.de/tankstelle/3EF293", "watchlist_id": null, "formatted_address": "Albaxer Str. 65\nH\u00f6xter\n37671", "channel_of_trade": "EVDE"}, {"id": "3EF294", "name": "BK", "lat": 51.4833, "lng": 9.3881, "site_brand": "Aral pulse Ladestation", "country_code": "DE", "address": "Grebensteiner Str. 6", "city": "Hofgeismar", "state": null, "postcode": "34369", "telephone": "", "facilities": ["open_24_hours", "electric_charging", "open_saturday", "open_sunday"], "products": ["electric_charging"], "website": "http://tankstelle.aral.de/tankstelle/3EF294", "watchlist_id": null, "formatted_address": "Grebensteiner Str. 6\nHofgeismar\n34369", "channel_of_trade": "EVDE"}, {"id": "3EF297", "name": "REWE", "lat": 8.04336583, "lng": 52.1554488, "site_brand": "Aral pulse Ladestation", "country_code": "DE", "address": "M\u00fchlentor 1", "city": "Bad Iburg", "state": null, "postcode": "49186", "telephone": "", "facilities": ["electric_charging", "open_saturday", "open_sunday"], "products": ["electric_charging"], "website": "http://tankstelle.aral.de/tankstelle/3EF297", "watchlist_id": null, "formatted_address": "M\u00fchlentor 1\nBad Iburg\n49186", "channel_of_trade": "EVDE"}, {"id": "3EF363", "name": "REWE", "lat": 51.001467, "lng": 13.6506168, "site_brand": "Aral pulse Ladestation", "country_code": "DE", "address": "Dresdner Stra\u00dfe 166", "city": "Freital", "state": null, "postcode": "01705", "telephone": "", "facilities": ["open_24_hours", "electric_charging", "open_saturday", "open_sunday"], "products": ["electric_charging"], "website": "http://tankstelle.aral.de/tankstelle/3EF363", "watchlist_id": null, "formatted_address": "Dresdner Stra\u00dfe 166\nFreital\n01705", "channel_of_trade": "EVDE"}]